[
    {
        "name": "AUTO ECOLE DE VOISINS",
        "address": "15/17, RUE DES TILLEULS LES ESPACES DES VERGERS",
        "postalCode": "78960",
        "city": "VOISINS-LE-BRETONNEUX",
        "location": {
            "lat": 48.7586786,
            "lon": 2.0509674
        }
    },
    {
        "name": "CHRIS'CONDUITE",
        "address": "18 BOULEVARD DU MAIL",
        "postalCode": "1300",
        "city": "BELLEY",
        "location": {
            "lat": 45.7605286,
            "lon": 5.6883082
        }
    },
    {
        "name": "LEVANT",
        "address": "1-3 CHEMIN DES FLEURS",
        "postalCode": "1210",
        "city": "FERNEY-VOLTAIRE",
        "location": {
            "lat": 46.2602647,
            "lon": 6.1160544
        }
    },
    {
        "name": "RAMBERTOISE",
        "address": "88 RUE DU DOCTEUR TEMPORAL",
        "postalCode": "1230",
        "city": "SAINT-RAMBERT-EN-BUGEY",
        "location": {
            "lat": 45.948607,
            "lon": 5.439958
        }
    },
    {
        "name": "LYCEE PROFESSIONNEL GABRIEL VOISIN",
        "address": "21, avenue de Jasseron",
        "postalCode": "1000",
        "city": "BOURG-EN-BRESSE",
        "location": {
            "lat": 46.211364,
            "lon": 5.244992
        }
    },
    {
        "name": "AUTO ECOLE ESTORIL",
        "address": "250 LES MILLIERES",
        "postalCode": "1390",
        "city": "SAINT-ANDRE-DE-CORCY",
        "location": {
            "lat": 45.9281426,
            "lon": 4.9534729
        }
    },
    {
        "name": "TABIA",
        "address": "8 RUE BAN THEVENIN",
        "postalCode": "1800",
        "city": "MEXIMIEUX",
        "location": {
            "lat": 45.9052058,
            "lon": 5.1962353
        }
    },
    {
        "name": "PHENIX",
        "address": "42 BIS RUE JULES MICHELET",
        "postalCode": "1100",
        "city": "OYONNAX",
        "location": {
            "lat": 46.2597946,
            "lon": 5.6546852
        }
    },
    {
        "name": "2020 ST TRIVIER",
        "address": "10 RUE DE L'EGLISE",
        "postalCode": "1990",
        "city": "SAINT-TRIVIER-SUR-MOIGNANS",
        "location": {
            "lat": 46.0717599,
            "lon": 4.8967543
        }
    },
    {
        "name": "SUZON BOURG EN BRESSE",
        "address": "4 RUE DU LYCEE",
        "postalCode": "1000",
        "city": "BOURG-EN-BRESSE",
        "location": {
            "lat": 46.2030363,
            "lon": 5.2260712
        }
    },
    {
        "name": "SUZON ST DENIS LES BOURG",
        "address": "27 CHEMIN DU PRE JOLI",
        "postalCode": "1000",
        "city": "SAINT-DENIS-LES-BOURG",
        "location": {
            "lat": 46.2028649,
            "lon": 5.1982787
        }
    },
    {
        "name": "EYMARD",
        "address": "8 PLACE DE LA LIBERTE",
        "postalCode": "1150",
        "city": "LAGNIEU",
        "location": {
            "lat": 45.9024541,
            "lon": 5.3482195
        }
    },
    {
        "name": "TCM TREVOUX",
        "address": "8 GRANDE RUE",
        "postalCode": "1600",
        "city": "TREVOUX",
        "location": {
            "lat": 45.9406515,
            "lon": 4.775999464129573
        }
    },
    {
        "name": "TCM CHALEINS",
        "address": "222 ROUTE DE FAREINS",
        "postalCode": "1480",
        "city": "CHALEINS",
        "location": {
            "lat": 46.029999,
            "lon": 4.802225
        }
    },
    {
        "name": "EUROP' AUTO-ECOLE",
        "address": "3 RUE DE LA REPUBLIQUE",
        "postalCode": "1000",
        "city": "BOURG-EN-BRESSE",
        "location": {
            "lat": 46.2034216,
            "lon": 5.2269218
        }
    },
    {
        "name": "CHANTALE PLUS",
        "address": "295 RUE JEAN MARIE VIANNEY",
        "postalCode": "1480",
        "city": "ARS-SUR-FORMANS",
        "location": {
            "lat": 45.9936201,
            "lon": 4.821306
        }
    },
    {
        "name": "PAINLEVE",
        "address": "9 PLACE DES DEPORTES",
        "postalCode": "1100",
        "city": "OYONNAX",
        "location": {
            "lat": 46.2565831,
            "lon": 5.6599817
        }
    },
    {
        "name": "ESPACE",
        "address": "325 IMPASSE TREIZE VENTS",
        "postalCode": "1340",
        "city": "MONTREVEL-EN-BRESSE",
        "location": {
            "lat": 46.3314934,
            "lon": 5.11856
        }
    },
    {
        "name": "ANNE ROLLET",
        "address": "102 RUE ALPHONSE BAUDIN",
        "postalCode": "1400",
        "city": "CHATILLON-SUR-CHALARONNE",
        "location": {
            "lat": 46.119462,
            "lon": 4.957222
        }
    },
    {
        "name": "LA COTIERE",
        "address": "31 PLACE CARNOT",
        "postalCode": "1120",
        "city": "MONTLUEL",
        "location": {
            "lat": 45.851611,
            "lon": 5.056742
        }
    },
    {
        "name": "LYCEES JASSERON",
        "address": "79 RUE THOMAS RIBOUD",
        "postalCode": "1250",
        "city": "JASSERON",
        "location": {
            "lat": 46.2147625,
            "lon": 5.3271219
        }
    },
    {
        "name": "PATOU BRESSE REVERMONT",
        "address": "72 PLACE DE LA MAIRIE",
        "postalCode": "1000",
        "city": "SAINT-DENIS-LES-BOURG",
        "location": {
            "lat": 46.2023965,
            "lon": 5.1896292
        }
    },
    {
        "name": "LA CLUSE",
        "address": "85 RUE DU JURA",
        "postalCode": "1460",
        "city": "MONTREAL-LA-CLUSE",
        "location": {
            "lat": 46.1713634,
            "lon": 5.5768999
        }
    },
    {
        "name": "PRIAYSIENNE",
        "address": "380 GRANDE RUE DE LA COTIERE",
        "postalCode": "1160",
        "city": "PRIAY",
        "location": {
            "lat": 45.9972859,
            "lon": 5.2817002
        }
    },
    {
        "name": "STEPH'01 PERMIS",
        "address": "116 RUE CHAYNES AIMABLE",
        "postalCode": "1540",
        "city": "VONNAS",
        "location": {
            "lat": 46.2190084,
            "lon": 4.9903575
        }
    },
    {
        "name": "BARNI",
        "address": "89 COURS DE VERDUN",
        "postalCode": "1100",
        "city": "OYONNAX",
        "location": {
            "lat": 46.2475569,
            "lon": 5.6407866
        }
    },
    {
        "name": "A VOUS DE CONDUIRE SERRIERES",
        "address": "32 A GRANDE RUE",
        "postalCode": "1470",
        "city": "SERRIERES-DE-BRIORD",
        "location": {
            "lat": 45.808499,
            "lon": 5.453165
        }
    },
    {
        "name": "N'RGY",
        "address": "43 RUE DE GENEVE",
        "postalCode": "1630",
        "city": "SAINT-GENIS-POUILLY",
        "location": {
            "lat": 46.2411565,
            "lon": 6.029276320192304
        }
    },
    {
        "name": "GARE",
        "address": "9 AVENUE PIERRE SEMARD",
        "postalCode": "1000",
        "city": "BOURG-EN-BRESSE",
        "location": {
            "lat": 46.200662,
            "lon": 5.2154649
        }
    },
    {
        "name": "PATOU BRESSE REVERMONT MARBOZ",
        "address": "RUE DU CENTRE 50 GRANDE RUE",
        "postalCode": "1851",
        "city": "MARBOZ",
        "location": {
            "lat": 46.342804,
            "lon": 5.2590787
        }
    },
    {
        "name": "PATOU BRESSE REVERMONT BOURG",
        "address": "37 BOULEVARD VICTOR HUGO",
        "postalCode": "1000",
        "city": "BOURG-EN-BRESSE",
        "location": {
            "lat": 46.2017202,
            "lon": 5.2304648
        }
    },
    {
        "name": "3 MONTS VILLEREVERSURE",
        "address": "95 PLACE DU MONUMENT",
        "postalCode": "1250",
        "city": "VILLEREVERSURE",
        "location": {
            "lat": 46.1917166,
            "lon": 5.3966097
        }
    },
    {
        "name": "3 MONTS TREFFORT",
        "address": "1 PLACE DU CHAMP DE FOIRE",
        "postalCode": "1370",
        "city": "TREFFORT-CUISIAT",
        "location": {
            "lat": 46.27348275,
            "lon": 5.353779343698562
        }
    },
    {
        "name": "3 MONTS ST ETIENNE DU BOIS",
        "address": "645 RUE CENTRALE",
        "postalCode": "1370",
        "city": "SAINT-ETIENNE-DU-BOIS",
        "location": {
            "lat": 46.28962,
            "lon": 5.295353
        }
    },
    {
        "name": "3 D",
        "address": "46 BOULEVARD DU MAIL",
        "postalCode": "1300",
        "city": "BELLEY",
        "location": {
            "lat": 45.7597691,
            "lon": 5.689589
        }
    },
    {
        "name": "IKRAM",
        "address": "26 BIS AVENUE MARECHAL LECLERC",
        "postalCode": "1200",
        "city": "BELLEGARDE-SUR-VALSERINE",
        "location": {
            "lat": 46.120894,
            "lon": 5.8108299
        }
    },
    {
        "name": "ROM'AIN AUTO-ECOLE",
        "address": "12 RUE DU LYCEE",
        "postalCode": "1000",
        "city": "BOURG-EN-BRESSE",
        "location": {
            "lat": 46.2028374,
            "lon": 5.22602
        }
    },
    {
        "name": "ROM'AIN AUTO-ECOLE",
        "address": "7 AVENUE DU REVERMONT",
        "postalCode": "1250",
        "city": "CEYZERIAT",
        "location": {
            "lat": 46.1792263,
            "lon": 5.3214209
        }
    },
    {
        "name": "CER LA CROISEE",
        "address": "91 RUE DU CENTRE",
        "postalCode": "1140",
        "city": "SAINT-DIDIER-SUR-CHALARONNE",
        "location": {
            "lat": 46.1769573,
            "lon": 4.8179064
        }
    },
    {
        "name": "THOMAS FORMATIONS",
        "address": "AVENUE DU DOCTEUR BERTHIER CENTRE COMMERCIAL MAGALI",
        "postalCode": "1800",
        "city": "MEXIMIEUX",
        "location": {
            "lat": 45.90363,
            "lon": 5.1925264
        }
    },
    {
        "name": "ECF AMBERIEU",
        "address": "101 RUE ALEXANDRE BERARD",
        "postalCode": "1500",
        "city": "AMBERIEU-EN-BUGEY",
        "location": {
            "lat": 45.9729475,
            "lon": 5.3517929
        }
    },
    {
        "name": "HELENA 01",
        "address": "5 AVENUE MARECHAL DE LATTRE DE TASSIGNY",
        "postalCode": "1200",
        "city": "CHATILLON-EN-MICHAILLE",
        "location": {
            "lat": 46.1250615,
            "lon": 5.8110023
        }
    },
    {
        "name": "AJ-LITY",
        "address": "426 GRANDE RUE",
        "postalCode": "1570",
        "city": "FEILLENS",
        "location": {
            "lat": 46.32788,
            "lon": 4.884209
        }
    },
    {
        "name": "3 MONTS ",
        "address": "178 GRANDE RUE",
        "postalCode": "1660",
        "city": "MEZERIAT",
        "location": {
            "lat": 46.2338793,
            "lon": 5.0475964
        }
    },
    {
        "name": "POLYTECHNIQUE",
        "address": "47 RUE CHARLES ROBIN",
        "postalCode": "1000",
        "city": "BOURG-EN-BRESSE",
        "location": {
            "lat": 46.20591,
            "lon": 5.232039
        }
    },
    {
        "name": "A'DAM FORMATIONS",
        "address": "22 RUE DES TERREAUX",
        "postalCode": "1170",
        "city": "GEX",
        "location": {
            "lat": 46.332013,
            "lon": 6.0577198
        }
    },
    {
        "name": "AMOUDRUZ DIVONNE",
        "address": "233 GRANDE RUE RESIDENCE DU BIEF",
        "postalCode": "1220",
        "city": "DIVONNE-LES-BAINS",
        "location": {
            "lat": 46.3570916,
            "lon": 6.143049
        }
    },
    {
        "name": "LA PASSERELLE",
        "address": "27 AVENUE JEAN JAURES",
        "postalCode": "1000",
        "city": "BOURG-EN-BRESSE",
        "location": {
            "lat": 46.199679,
            "lon": 5.2184253
        }
    },
    {
        "name": "LA PASSERELLE",
        "address": "7 RUE DU 19 MARS 1962",
        "postalCode": "1540",
        "city": "VONNAS",
        "location": {
            "lat": 46.218754,
            "lon": 4.992528
        }
    },
    {
        "name": "CENTRE",
        "address": "70 B RUE DU JURA",
        "postalCode": "1460",
        "city": "MONTREAL-LA-CLUSE",
        "location": {
            "lat": 46.1717513,
            "lon": 5.5769485
        }
    },
    {
        "name": "ARBENT MARCHON",
        "address": "4 RUE DU MAQUIS",
        "postalCode": "1100",
        "city": "ARBENT",
        "location": {
            "lat": 46.273714,
            "lon": 5.675709
        }
    },
    {
        "name": "A VOUS DE CONDUIRE ST VULBAS",
        "address": "827 RUE CLAIRE FONTAINE",
        "postalCode": "1150",
        "city": "SAINT-VULBAS",
        "location": {
            "lat": 45.8306,
            "lon": 5.28959
        }
    },
    {
        "name": "BRESSE SAONE",
        "address": "15 PLACE LEGRAND",
        "postalCode": "1190",
        "city": "PONT-DE-VAUX",
        "location": {
            "lat": 46.428873,
            "lon": 4.938466
        }
    },
    {
        "name": "ECF OYONNAX",
        "address": "4 PLACE DE LA CROIX ROUSSE",
        "postalCode": "1100",
        "city": "OYONNAX",
        "location": {
            "lat": 46.256884,
            "lon": 5.65793
        }
    },
    {
        "name": "MADELAINE",
        "address": "77 PLACE JEAN MONNET",
        "postalCode": "1630",
        "city": "SAINT-GENIS-POUILLY",
        "location": {
            "lat": 46.245624,
            "lon": 6.021302
        }
    },
    {
        "name": "NAT AUTO MOTO",
        "address": "29 RUE DU 8 MAI 1945",
        "postalCode": "1100",
        "city": "OYONNAX",
        "location": {
            "lat": 46.2575396,
            "lon": 5.6576262
        }
    },
    {
        "name": "MY WAY",
        "address": "1 AVENUE DE LA GARE",
        "postalCode": "1350",
        "city": "CULOZ",
        "location": {
            "lat": 45.8470784,
            "lon": 5.7815227
        }
    },
    {
        "name": "CELIK",
        "address": "14 AVENUE GEORGES CLEMENCEAU",
        "postalCode": "1100",
        "city": "OYONNAX",
        "location": {
            "lat": 46.2559768,
            "lon": 5.6501037
        }
    },
    {
        "name": "PADDOCK DRIVING SCHOOL",
        "address": "LE BOIS DU MONT 801 LE MONT",
        "postalCode": "1390",
        "city": "SAINT-JEAN-DE-THURIGNEUX",
        "location": {
            "lat": 45.9522053,
            "lon": 4.8820059
        }
    },
    {
        "name": "CENTRE D'AUMARD",
        "address": "26 CHEMIN DES MURIERS",
        "postalCode": "1210",
        "city": "FERNEY-VOLTAIRE",
        "location": {
            "lat": 46.2591043,
            "lon": 6.1115408
        }
    },
    {
        "name": "EUROPE",
        "address": "33 AVENUE DE L'EUROPE",
        "postalCode": "1960",
        "city": "PERONNAS",
        "location": {
            "lat": 46.1798475,
            "lon": 5.203589
        }
    },
    {
        "name": "LYCEE",
        "address": "45 AVENUE LEON BLUM",
        "postalCode": "1500",
        "city": "AMBERIEU-EN-BUGEY",
        "location": {
            "lat": 45.9601151,
            "lon": 5.3478671
        }
    },
    {
        "name": "ECOLE DE CONDUITE DU PAYS DE GEX DUPREY JULIE",
        "address": "153 RUE DES VERTES CAMPAGNES",
        "postalCode": "1170",
        "city": "GEX",
        "location": {
            "lat": 46.3265308,
            "lon": 6.050501
        }
    },
    {
        "name": "BAS BUGEY AUTO-ECOLE",
        "address": "14 RUE GEORGES GIRERD",
        "postalCode": "1300",
        "city": "BELLEY",
        "location": {
            "lat": 45.7605446,
            "lon": 5.685394
        }
    },
    {
        "name": "VALROMEY AUTO-ECOLE",
        "address": "4 RUE NEUVE",
        "postalCode": "1510",
        "city": "ARTEMARE",
        "location": {
            "lat": 45.874208,
            "lon": 5.692255
        }
    },
    {
        "name": "CENTRE DE FORMATION MOREAU",
        "address": "170 IMPASSE EN CHOSSAGNE",
        "postalCode": "1190",
        "city": "OZAN",
        "location": {
            "lat": 46.384962,
            "lon": 4.914684
        }
    },
    {
        "name": "CASNO - THOMAS FORMATIONS",
        "address": "684 ROUTE DE GENEVE",
        "postalCode": "1120",
        "city": "DAGNEUX",
        "location": {
            "lat": 45.8506184,
            "lon": 5.0878842
        }
    },
    {
        "name": "SEVEN AUTO ECOLE",
        "address": "337 ROUTE DU NANT",
        "postalCode": "1280",
        "city": "PREVESSIN-MOENS",
        "location": {
            "lat": 46.2490878,
            "lon": 6.087468647567825
        }
    },
    {
        "name": "CENTRE",
        "address": "3 RUE DES TORTIPIEDS",
        "postalCode": "1340",
        "city": "MONTREVEL-EN-BRESSE",
        "location": {
            "lat": 46.3373868,
            "lon": 5.1292021
        }
    },
    {
        "name": "AJ-LITY BAGE LE CHATEL",
        "address": "2 RUE CONDAMNALE",
        "postalCode": "1380",
        "city": "BAGE-LE-CHATEL",
        "location": {
            "lat": 46.3076928,
            "lon": 4.9291215
        }
    },
    {
        "name": "PORTES DE L'AIN",
        "address": "91 CITE DES FOLLIETS",
        "postalCode": "1700",
        "city": "SAINT-MAURICE-DE-BEYNOST",
        "location": {
            "lat": 45.8333,
            "lon": 4.97709
        }
    },
    {
        "name": "AJ LITY",
        "address": "60 GRANDE RUE",
        "postalCode": "1290",
        "city": "PONT-DE-VEYLE",
        "location": {
            "lat": 46.2634297,
            "lon": 4.8883252
        }
    },
    {
        "name": "AIN FORMATION CONDUITE",
        "address": "2 ROUTE DE BOURG",
        "postalCode": "1640",
        "city": "SAINT-JEAN-LE-VIEUX",
        "location": {
            "lat": 46.0277205,
            "lon": 5.387167401006712
        }
    },
    {
        "name": "AIN FORMATION CONDUITE",
        "address": "6 PLACE DU LIEUTENANT GIRAUD",
        "postalCode": "1800",
        "city": "MEXIMIEUX",
        "location": {
            "lat": 45.90363,
            "lon": 5.1925264
        }
    },
    {
        "name": "AIN FORMATION CONDUITE",
        "address": "19 AVENUE GENERAL DE GAULLE",
        "postalCode": "1500",
        "city": "AMBERIEU-EN-BUGEY",
        "location": {
            "lat": 45.9636047,
            "lon": 5.3565425
        }
    },
    {
        "name": "AIN FORMATION CONDUITE",
        "address": "PLACE DU MARCHE 12 GRANDE RUE",
        "postalCode": "1320",
        "city": "CHALAMONT",
        "location": {
            "lat": 45.9963055,
            "lon": 5.1710728
        }
    },
    {
        "name": "AIN FORMATION CONDUITE",
        "address": "54 ROUTE DU PORT",
        "postalCode": "1150",
        "city": "LAGNIEU",
        "location": {
            "lat": 45.9001863,
            "lon": 5.3474196
        }
    },
    {
        "name": "DES LYCEES",
        "address": "46 RUE PROSPER CONVERT",
        "postalCode": "1440",
        "city": "VIRIAT",
        "location": {
            "lat": 46.2523495,
            "lon": 5.2178016
        }
    },
    {
        "name": "MONTMERLE 3 RIVIERES",
        "address": "52 RUE DE LYON",
        "postalCode": "1090",
        "city": "MONTMERLE-SUR-SAONE",
        "location": {
            "lat": 46.07951,
            "lon": 4.758967
        }
    },
    {
        "name": "PLATEAU CONDUITE",
        "address": "8 AVENUE DE LYON PLATEAU D'HAUTEVILLE",
        "postalCode": "1110",
        "city": "HAUTEVILLE-LOMPNES",
        "location": {
            "lat": 45.96225915,
            "lon": 5.578230565464258
        }
    },
    {
        "name": "MONTMERLE 3 RIVIERES",
        "address": "BOULEVARD DE LA POSTE",
        "postalCode": "1400",
        "city": "CHATILLON-SUR-CHALARONNE",
        "location": {
            "lat": 46.1194566,
            "lon": 4.9566779
        }
    },
    {
        "name": "MONTMERLE 3 RIVIERES",
        "address": "42 RUE LEON MARIE FOURNET",
        "postalCode": "1480",
        "city": "JASSANS-RIOTTIER",
        "location": {
            "lat": 45.98514,
            "lon": 4.7567624
        }
    },
    {
        "name": "DTMG",
        "address": "2 RUE DU BREU",
        "postalCode": "1710",
        "city": "THOIRY",
        "location": {
            "lat": 46.2335707,
            "lon": 5.9809441
        }
    },
    {
        "name": "CAP'PERMIS",
        "address": "8 AVENUE DU GENERAL SARAIL",
        "postalCode": "1500",
        "city": "AMBERIEU-EN-BUGEY",
        "location": {
            "lat": 45.9584309,
            "lon": 5.3595099
        }
    },
    {
        "name": "VIRAGE PERMIS",
        "address": "289 ROUTE DU 3 SEPTEMBRE 1944",
        "postalCode": "1330",
        "city": "AMBERIEUX-EN-DOMBES",
        "location": {
            "lat": 45.9996407,
            "lon": 4.8925891
        }
    },
    {
        "name": "ABABIL AUTO ECOLE",
        "address": "4 RUE VICTOR HUGO",
        "postalCode": "1100",
        "city": "OYONNAX",
        "location": {
            "lat": 46.2568585,
            "lon": 5.6533644
        }
    },
    {
        "name": "LASER PERMIS",
        "address": "221 RUE DU BUGEY",
        "postalCode": "1360",
        "city": "LOYETTES",
        "location": {
            "lat": 45.7798935,
            "lon": 5.2152973
        }
    },
    {
        "name": "MARC'O VALSERINE",
        "address": "39 RUE LAFAYETTE VALSERHONE",
        "postalCode": "1200",
        "city": "BELLEGARDE-SUR-VALSERINE",
        "location": {
            "lat": 46.1073717,
            "lon": 5.830776446201167
        }
    },
    {
        "name": "KALYAS",
        "address": "45 RUE DE GENEVE",
        "postalCode": "1210",
        "city": "FERNEY-VOLTAIRE",
        "location": {
            "lat": 46.253883,
            "lon": 6.1141939712058235
        }
    },
    {
        "name": "NAT AUTO MOTO",
        "address": "16 RUE DU COLLEGE",
        "postalCode": "1130",
        "city": "NANTUA",
        "location": {
            "lat": 46.1535021,
            "lon": 5.6063878
        }
    },
    {
        "name": "MY WAY",
        "address": "14 QUAI SERULLAZ",
        "postalCode": "1420",
        "city": "SEYSSEL",
        "location": {
            "lat": 45.9603816,
            "lon": 5.8318498
        }
    },
    {
        "name": "AUTO ECOLE JULIEN",
        "address": "14 RUE DU COLLEGE",
        "postalCode": "1130",
        "city": "NANTUA",
        "location": {
            "lat": 46.1535865,
            "lon": 5.6063194
        }
    },
    {
        "name": "MEHDI VALSERINE",
        "address": "41 RUE DOMPARON",
        "postalCode": "1170",
        "city": "GEX",
        "location": {
            "lat": 46.329059,
            "lon": 6.055845
        }
    },
    {
        "name": "FUN",
        "address": "2 BIS RUE GUSTAVE DORE",
        "postalCode": "1000",
        "city": "BOURG-EN-BRESSE",
        "location": {
            "lat": 46.203404,
            "lon": 5.225331
        }
    },
    {
        "name": "CATALA",
        "address": "11 PLACE CARRIAT",
        "postalCode": "1000",
        "city": "BOURG-EN-BRESSE",
        "location": {
            "lat": 46.2075052,
            "lon": 5.2263941
        }
    },
    {
        "name": "EMBAS",
        "address": "181 ROUTE DE VOUVRAY VALSERHONE",
        "postalCode": "1200",
        "city": "BELLEGARDE-SUR-VALSERINE",
        "location": {
            "lat": 46.1073717,
            "lon": 5.830776446201167
        }
    },
    {
        "name": "PILOTE",
        "address": "80 C RUE DE LA MARE",
        "postalCode": "1310",
        "city": "POLLIAT",
        "location": {
            "lat": 46.2467519,
            "lon": 5.1291864
        }
    },
    {
        "name": "PILOTE",
        "address": "152 CHEMIN NEUF",
        "postalCode": "1310",
        "city": "BUELLAS",
        "location": {
            "lat": 46.1970305,
            "lon": 5.1578309
        }
    },
    {
        "name": "IKRAM PAYS DE GEX",
        "address": "167 PLACE JEAN MONNET",
        "postalCode": "1630",
        "city": "SAINT-GENIS-POUILLY",
        "location": {
            "lat": 46.2460892,
            "lon": 6.0221314
        }
    },
    {
        "name": "OMK",
        "address": "85 RUE ARISTIDE BRIAND",
        "postalCode": "1500",
        "city": "AMBERIEU-EN-BUGEY",
        "location": {
            "lat": 45.9580304,
            "lon": 5.3522857
        }
    },
    {
        "name": "PRO CONDUITE",
        "address": "13A AVENUE ALPHONSE BAUDIN",
        "postalCode": "1000",
        "city": "BOURG-EN-BRESSE",
        "location": {
            "lat": 46.200369,
            "lon": 5.217361
        }
    },
    {
        "name": "CASTELLET MONTAGNAT",
        "address": "6 CHEMIN DE LA ZONE ARTISANALE DE SAINT AMOUZE",
        "postalCode": "1250",
        "city": "MONTAGNAT",
        "location": {
            "lat": 46.1699,
            "lon": 5.28339
        }
    },
    {
        "name": "ALPI",
        "address": "30 RUE DE LA PLACE",
        "postalCode": "1600",
        "city": "REYRIEUX",
        "location": {
            "lat": 45.9346861,
            "lon": 4.8242408
        }
    },
    {
        "name": "ASPHALTE",
        "address": "20 RUE ARNAUD BELTRAME",
        "postalCode": "1120",
        "city": "MONTLUEL",
        "location": {
            "lat": 45.8498573,
            "lon": 5.0517703
        }
    },
    {
        "name": "AIN FORMATION CONDUITE",
        "address": "13 RUE DU 1ER SEPTEMBRE 1944",
        "postalCode": "1160",
        "city": "PONT-D'AIN",
        "location": {
            "lat": 46.0497989,
            "lon": 5.3285741
        }
    },
    {
        "name": "SARL AUTO MOTO ECOLE FORMUL'AIN",
        "address": "494 GRANDE RUE",
        "postalCode": "1340",
        "city": "ATTIGNAT",
        "location": {
            "lat": 46.2918555,
            "lon": 5.1567175
        }
    },
    {
        "name": "SARL DES ETANGS BY MARY",
        "address": "21 AVENUS DU COLOMBIER",
        "postalCode": "1330",
        "city": "VILLARS-LES-DOMBES",
        "location": {
            "lat": 46.0013674,
            "lon": 5.0293204
        }
    },
    {
        "name": "FOLLOW ME",
        "address": "50 GRANDE RUE",
        "postalCode": "1120",
        "city": "MONTLUEL",
        "location": {
            "lat": 45.851928,
            "lon": 5.058423
        }
    },
    {
        "name": "AUTO ECOLE MENNESSON",
        "address": "2 RUE SADI CARNOT",
        "postalCode": "2120",
        "city": "GUISE",
        "location": {
            "lat": 49.900555,
            "lon": 3.630889
        }
    },
    {
        "name": "SOCIETE NOUVELLE AUTO ECOLE  LA FONTAINE",
        "address": "76 RUE CARNOT",
        "postalCode": "2400",
        "city": "CHATEAU-THIERRY",
        "location": {
            "lat": 49.041215,
            "lon": 3.404453
        }
    },
    {
        "name": "AUTO-ECOLE DU PLATEAU",
        "address": "3 Bis, Place Victor Hugo",
        "postalCode": "2000",
        "city": "LAON",
        "location": {
            "lat": 49.5699737,
            "lon": 3.6369749
        }
    },
    {
        "name": "PENEL",
        "address": "22 AVENUE DE SOISSONS",
        "postalCode": "2400",
        "city": "CHATEAU-THIERRY",
        "location": {
            "lat": 49.046186000000006,
            "lon": 3.3985577805873883
        }
    },
    {
        "name": "AUTO ECOLE HIRSONNAISE",
        "address": "138 Rue Charles de Gaulle",
        "postalCode": "2500",
        "city": "HIRSON",
        "location": {
            "lat": 49.917124,
            "lon": 4.085887
        }
    },
    {
        "name": "AUTO ECOLE MICHELET",
        "address": "11 RUE DU POINT DU JOUR",
        "postalCode": "2000",
        "city": "LAON",
        "location": {
            "lat": 49.570224,
            "lon": 3.638089
        }
    },
    {
        "name": "ATHIES AUTO ECOLE",
        "address": "2 bis rue de Laon",
        "postalCode": "2840",
        "city": "ATHIES-SOUS-LAON",
        "location": {
            "lat": 49.573023,
            "lon": 3.682416
        }
    },
    {
        "name": "AUTO ECOLE JEAN",
        "address": "17 RUE DU GENERAL LECLERC",
        "postalCode": "2300",
        "city": "CHAUNY",
        "location": {
            "lat": 49.6142098,
            "lon": 3.2184727
        }
    },
    {
        "name": "AUTO ECOLE AU 56",
        "address": "56 AVENUE DE REIMS",
        "postalCode": "2200",
        "city": "SOISSONS",
        "location": {
            "lat": 49.374872,
            "lon": 3.3371128
        }
    },
    {
        "name": "AUTO ECOLE NATHALIE",
        "address": "12 RUE PAULA AUDUBERT",
        "postalCode": "2170",
        "city": "LE NOUVION-EN-THIERACHE",
        "location": {
            "lat": 50.017546,
            "lon": 3.789155
        }
    },
    {
        "name": "CER DU BOURGET",
        "address": "29 RUE DU BOURGET",
        "postalCode": "2800",
        "city": "LA FERE",
        "location": {
            "lat": 49.663367,
            "lon": 3.363417
        }
    },
    {
        "name": "SARL CDB FORMATIONS",
        "address": "7 rue Saint Christophe",
        "postalCode": "2290",
        "city": "VIC-SUR-AISNE",
        "location": {
            "lat": 49.4065,
            "lon": 3.115146
        }
    },
    {
        "name": "AUTO ECOLE DES TROIS RIVIERES",
        "address": "14 PLACE VILLEMONT",
        "postalCode": "2500",
        "city": "HIRSON",
        "location": {
            "lat": 49.9203419,
            "lon": 4.0837186
        }
    },
    {
        "name": "GOLOTVINE",
        "address": "1 RUE HOCHE",
        "postalCode": "2700",
        "city": "TERGNIER",
        "location": {
            "lat": 49.653611,
            "lon": 3.29226
        }
    },
    {
        "name": "PROMOTRANS FPC",
        "address": "ZAC LA VALLEE  RUE MARCEL PAUL",
        "postalCode": "2100",
        "city": "SAINT QUENTIN",
        "location": {
            "lat": 49.857548050000005,
            "lon": 3.2859413491387572
        }
    },
    {
        "name": "AUTO ECOLE FLABAT",
        "address": "21 RUE FAGARD",
        "postalCode": "2110",
        "city": "BOHAIN-EN-VERMANDOIS",
        "location": {
            "lat": 49.987417,
            "lon": 3.45345
        }
    },
    {
        "name": "AUTO ECOLE ROSSIGNOL",
        "address": "24 RUE PIERRE SEMARD",
        "postalCode": "2700",
        "city": "TERGNIER",
        "location": {
            "lat": 49.656017,
            "lon": 3.297271
        }
    },
    {
        "name": "BERSEZ CONDUITE",
        "address": "3 RUE DES GLACIS",
        "postalCode": "2100",
        "city": "SAINT QUENTIN",
        "location": {
            "lat": 49.8507175,
            "lon": 3.282633
        }
    },
    {
        "name": "AUTO ECOLE SEBASTIEN DUPONT",
        "address": "2 RUE ANNE MORGAN",
        "postalCode": "2200",
        "city": "SOISSONS",
        "location": {
            "lat": 49.3718,
            "lon": 3.323873
        }
    },
    {
        "name": "SC AUTO ECOLE GUISARDE",
        "address": "34 RUE DU GENERAL LECLERC",
        "postalCode": "2140",
        "city": "VERVINS",
        "location": {
            "lat": 49.8333454,
            "lon": 3.9059
        }
    },
    {
        "name": "AUTO ECOLE DE LA SERRE",
        "address": "20 PLACE DE L'HÖTEL DE VILLE",
        "postalCode": "2120",
        "city": "SAINS-RICHAUMONT",
        "location": {
            "lat": 49.8232196,
            "lon": 3.7030536
        }
    },
    {
        "name": "COUVRON AUTO-ECOLE",
        "address": "7 TER RUE DU COLONEL CHEPY",
        "postalCode": "2270",
        "city": "COUVRON-ET-AUMENCOURT",
        "location": {
            "lat": 49.6431951,
            "lon": 3.517718227054795
        }
    },
    {
        "name": "AUTO-ECOLE VAUX LAON",
        "address": "15 RUE FERNAND THUILLART",
        "postalCode": "2000",
        "city": "LAON",
        "location": {
            "lat": 49.568255,
            "lon": 3.633222
        }
    },
    {
        "name": "AUTO ECOLE GUILLAUME",
        "address": "3 RUE JEAN VIMONT VICARY",
        "postalCode": "2170",
        "city": "LE NOUVION-EN-THIERACHE",
        "location": {
            "lat": 50.016593,
            "lon": 3.783639
        }
    },
    {
        "name": "CONCEPT PERMIS",
        "address": "1134 AVENUE GEORGES POMPIDOU",
        "postalCode": "2000",
        "city": "LAON",
        "location": {
            "lat": 49.54982,
            "lon": 3.618427
        }
    },
    {
        "name": "TRAJECTOIRE",
        "address": "1 RUE MICHELET",
        "postalCode": "2500",
        "city": "HIRSON",
        "location": {
            "lat": 49.9233456,
            "lon": 4.0761101
        }
    },
    {
        "name": "ECOLE DE CONDUITE STAND 22",
        "address": "10 ALLEE DES NOBEL PARC GOURAUD",
        "postalCode": "2200",
        "city": "SOISSONS",
        "location": {
            "lat": 49.3170016,
            "lon": 3.3123922301668594
        }
    },
    {
        "name": "AUTO-ECOLE PANICO",
        "address": "167 Bis RUE DU GENERAL LECLERC",
        "postalCode": "2100",
        "city": "SAINT QUENTIN",
        "location": {
            "lat": 49.7522266,
            "lon": 3.3637932
        }
    },
    {
        "name": "AUTO-ÉCOLE PANICO",
        "address": "151 RUE PASTEUR",
        "postalCode": "2390",
        "city": "ORIGNY-SAINTE-BENOITE",
        "location": {
            "lat": 49.840904,
            "lon": 3.493549
        }
    },
    {
        "name": "DU BOURG",
        "address": "9 PLACE DE L HOTEL DE VILLE",
        "postalCode": "2300",
        "city": "BLERANCOURT",
        "location": {
            "lat": 49.5168409,
            "lon": 3.1515015
        }
    },
    {
        "name": "AUTO-ECOLE NOMINE",
        "address": "14 BIS RUE DE LA GARE",
        "postalCode": "2450",
        "city": "BOUE",
        "location": {
            "lat": 50.010536,
            "lon": 3.694954
        }
    },
    {
        "name": "SASU AUTO ECOLE DU CENTRE",
        "address": "8 RUE SAINT ANTOINE",
        "postalCode": "2200",
        "city": "SOISSONS",
        "location": {
            "lat": 49.379787,
            "lon": 3.327477
        }
    },
    {
        "name": "AISNE PERMIS",
        "address": "4 BIS PLACE MICHEL PEZIN",
        "postalCode": "2110",
        "city": "BOHAIN-EN-VERMANDOIS",
        "location": {
            "lat": 49.985439,
            "lon": 3.458279
        }
    },
    {
        "name": "AULNOIS AUTO-ECOLE",
        "address": "4 RUE DE LA GARE",
        "postalCode": "2000",
        "city": "AULNOIS-SOUS-LAON",
        "location": {
            "lat": 49.6102379,
            "lon": 3.6108501
        }
    },
    {
        "name": "EPIDE",
        "address": "140 rue de la chaussée Romaine",
        "postalCode": "2100",
        "city": "SAINT QUENTIN",
        "location": {
            "lat": 49.8433846,
            "lon": 3.2767196
        }
    },
    {
        "name": "HERBET ANTHONY",
        "address": "14 RUE DU GENERAL MANGIN",
        "postalCode": "2600",
        "city": "VILLERS-COTTERETS",
        "location": {
            "lat": 49.2541576,
            "lon": 3.0918665
        }
    },
    {
        "name": "AUTO ECOLE REMY CAR'S",
        "address": "23 RUE DE PUYSEGUR",
        "postalCode": "2200",
        "city": "SOISSONS",
        "location": {
            "lat": 49.3781372,
            "lon": 3.3196866
        }
    },
    {
        "name": "OTMUS AUTO ECOLE",
        "address": "60 RUE CHARLES GUERIN",
        "postalCode": "2400",
        "city": "CHATEAU-THIERRY",
        "location": {
            "lat": 49.0504938,
            "lon": 3.3922925
        }
    },
    {
        "name": "AESA FORMATION",
        "address": "14 BIS AVENUE DU GENERAL DE GAULLE",
        "postalCode": "2190",
        "city": "GUIGNICOURT",
        "location": {
            "lat": 49.4347114,
            "lon": 3.9638252
        }
    },
    {
        "name": "CREZAC 2.0",
        "address": "14BIS RUE DE PARIS",
        "postalCode": "2650",
        "city": "CREZANCY",
        "location": {
            "lat": 49.0495942,
            "lon": 3.510025
        }
    },
    {
        "name": "PASSION CONDUITE",
        "address": "2 RUE ROGER SALENGRO",
        "postalCode": "2000",
        "city": "LAON",
        "location": {
            "lat": 49.568211,
            "lon": 3.624317
        }
    },
    {
        "name": "WEE PERMIS",
        "address": "13 RUE RASPAIL",
        "postalCode": "2100",
        "city": "SAINT QUENTIN",
        "location": {
            "lat": 49.8484377,
            "lon": 3.2877956
        }
    },
    {
        "name": "AUTO MOTO ECOLE DOMINIQUE",
        "address": "20 RUE DUSOLON",
        "postalCode": "2140",
        "city": "VERVINS",
        "location": {
            "lat": 49.836173,
            "lon": 3.911492
        }
    },
    {
        "name": "AFTRAL",
        "address": "4 RUE PIERRE BOURDAN",
        "postalCode": "2000",
        "city": "LAON",
        "location": {
            "lat": 49.573879,
            "lon": 3.647138
        }
    },
    {
        "name": "CER ALEXANDRE DUMAS",
        "address": "20 RUE DU GENERAL LECLERC",
        "postalCode": "2600",
        "city": "VILLERS-COTTERETS",
        "location": {
            "lat": 49.2554627,
            "lon": 3.0879176
        }
    },
    {
        "name": "SBC AUTO-ECOLE",
        "address": "2 AVENUE DE CHATEAU-THIERRY",
        "postalCode": "2470",
        "city": "NEUILLY-SAINT-FRONT",
        "location": {
            "lat": 49.1651387,
            "lon": 3.272961
        }
    },
    {
        "name": "TURLIN",
        "address": "9 boulevard Pierret",
        "postalCode": "2370",
        "city": "VAILLY-SUR-AISNE",
        "location": {
            "lat": 49.408868,
            "lon": 3.518477
        }
    },
    {
        "name": "AFTRAL",
        "address": "avenue Abel Bardin et Charles Benoit",
        "postalCode": "2100",
        "city": "ROUVROY",
        "location": {
            "lat": 49.8604926,
            "lon": 3.3257809
        }
    },
    {
        "name": "TURLIN",
        "address": "29 Place Charles de Gaulle",
        "postalCode": "2220",
        "city": "BRAINE",
        "location": {
            "lat": 49.341489,
            "lon": 3.531495
        }
    },
    {
        "name": "auto école sociale du soissonnais",
        "address": "9-11 alléee Pierre Mendès France",
        "postalCode": "2200",
        "city": "SOISSONS",
        "location": {
            "lat": 49.3170016,
            "lon": 3.3123922301668594
        }
    },
    {
        "name": "MARLE",
        "address": "18 RUE LALOUETTE",
        "postalCode": "2000",
        "city": "LAON",
        "location": {
            "lat": 49.740038,
            "lon": 3.769971
        }
    },
    {
        "name": "WEE PERMIS LAON",
        "address": "10 bis rue du bourg",
        "postalCode": "2000",
        "city": "LAON",
        "location": {
            "lat": 49.564538,
            "lon": 3.619844
        }
    },
    {
        "name": "SARL GOLOTVINE",
        "address": "1 RUE BARA",
        "postalCode": "2200",
        "city": "SOISSONS",
        "location": {
            "lat": 49.384382,
            "lon": 3.32422
        }
    },
    {
        "name": "DRIVING SCHOOL FORMATION - DSF",
        "address": "22 rue le Serurier",
        "postalCode": "2100",
        "city": "SAINT QUENTIN",
        "location": {
            "lat": 49.8514193,
            "lon": 3.2850515
        }
    },
    {
        "name": "DRIVING SCHOOL FORMATION - DSF",
        "address": "10 rue du Général leclerc",
        "postalCode": "2100",
        "city": "SAINT QUENTIN",
        "location": {
            "lat": 49.8414865,
            "lon": 3.2958194
        }
    },
    {
        "name": "DRIVING SCHOOL FORMATION - DSF",
        "address": "18 rue Alfred Chollet",
        "postalCode": "2120",
        "city": "GUISE",
        "location": {
            "lat": 49.8995733,
            "lon": 3.6278469
        }
    },
    {
        "name": "SAINT-ERME AUTO ECOLE",
        "address": "4 rue des Tortues Royes",
        "postalCode": "2820",
        "city": "SAINT-ERME-OUTRE-ET-RAMECOURT",
        "location": {
            "lat": 49.5300858,
            "lon": 3.8564953
        }
    },
    {
        "name": "AFTRAL",
        "address": "avenue Abel Barbin et Charles Benoit",
        "postalCode": "2100",
        "city": "ROUVROY",
        "location": {
            "lat": 49.8546772,
            "lon": 3.3195012
        }
    },
    {
        "name": "AUTO ECOLE DU CONSERVATOIRE",
        "address": "57 rue de d'isle",
        "postalCode": "2100",
        "city": "SAINT QUENTIN",
        "location": {
            "lat": 49.8448268,
            "lon": 3.2896002
        }
    },
    {
        "name": "AMZ FORMATIONS",
        "address": "29 RUE CAMILLE DESMOULINS",
        "postalCode": "2120",
        "city": "GUISE",
        "location": {
            "lat": 49.898843,
            "lon": 3.624926
        }
    },
    {
        "name": "MDMC",
        "address": "31 place Aristide Briand",
        "postalCode": "2130",
        "city": "FERE-EN-TARDENOIS",
        "location": {
            "lat": 49.200787,
            "lon": 3.513219
        }
    },
    {
        "name": "23rc",
        "address": "23 rue carnot",
        "postalCode": "2400",
        "city": "CHATEAU-THIERRY",
        "location": {
            "lat": 49.078884,
            "lon": 3.618856
        }
    },
    {
        "name": "MC PRO CONDUITE",
        "address": "2 bis place du 8 octobre",
        "postalCode": "2100",
        "city": "SAINT QUENTIN",
        "location": {
            "lat": 49.8420918,
            "lon": 3.2947891
        }
    },
    {
        "name": "ECOLE DE CONDUITE STAND 22",
        "address": "38 Bouvard alexandre Dumas",
        "postalCode": "2200",
        "city": "SOISSONS",
        "location": {
            "lat": 49.3170016,
            "lon": 3.3123922301668594
        }
    },
    {
        "name": "PARISOT RICHARD",
        "address": "103 RUE DU GENERAL DE GAULLE",
        "postalCode": "2260",
        "city": "LA CAPELLE",
        "location": {
            "lat": 50.3512319,
            "lon": 2.6330104
        }
    },
    {
        "name": "PARISOT RICHARD",
        "address": "71 rue de Vervins",
        "postalCode": "2500",
        "city": "HIRSON",
        "location": {
            "lat": 49.919068,
            "lon": 4.082371
        }
    },
    {
        "name": "AUTO ECOLE DE LA PASSERELLE",
        "address": "29 BOULEVARD GRAS BRANCOURT",
        "postalCode": "2000",
        "city": "LAON",
        "location": {
            "lat": 49.570562,
            "lon": 3.62931
        }
    },
    {
        "name": "AUTO ECOLE DE LA PASSERELLE",
        "address": "7 rue  de  Coucy",
        "postalCode": "2320",
        "city": "ANIZY-LE-CHATEAU",
        "location": {
            "lat": 49.505204,
            "lon": 3.4461
        }
    },
    {
        "name": "AESA FORMATION",
        "address": "7 RUE DE VERDUN",
        "postalCode": "2150",
        "city": "SISSONNE",
        "location": {
            "lat": 49.572969,
            "lon": 3.892247
        }
    },
    {
        "name": "AUTO ECOLE TOUT & PERMIS",
        "address": "75 RUE DU GENERAL DE GAULLE",
        "postalCode": "2260",
        "city": "LA CAPELLE",
        "location": {
            "lat": 50.3512319,
            "lon": 2.6330104
        }
    },
    {
        "name": "MERCURE FORMATION",
        "address": "27 rue DU GENERAL LECLERC",
        "postalCode": "2300",
        "city": "CHAUNY",
        "location": {
            "lat": 49.6142098,
            "lon": 3.2184727
        }
    },
    {
        "name": "MERCURE FORMATION",
        "address": "41 rue du Président John Fitzgerald-Kennedy",
        "postalCode": "2100",
        "city": "SAINT QUENTIN",
        "location": {
            "lat": 49.857548050000005,
            "lon": 3.2859413491387572
        }
    },
    {
        "name": "START UP AGAIN",
        "address": "15 rue des Clichets",
        "postalCode": "2520",
        "city": "FLAVY-LE-MARTEL",
        "location": {
            "lat": 49.714492,
            "lon": 3.195241
        }
    },
    {
        "name": "EFCT CONDUITE",
        "address": "5 RUE DE BELLEVUE",
        "postalCode": "2100",
        "city": "SAINT QUENTIN",
        "location": {
            "lat": 49.85242,
            "lon": 3.299035
        }
    },
    {
        "name": "JULIEN BONENFANT",
        "address": "2 RUE RENE LIEBERT",
        "postalCode": "2000",
        "city": "LAON",
        "location": {
            "lat": 49.5643449,
            "lon": 3.6404875
        }
    },
    {
        "name": "DISSAUX SANDRINE",
        "address": "4 RUE DE LA GARE",
        "postalCode": "2500",
        "city": "AUBENTON",
        "location": {
            "lat": 49.834169,
            "lon": 4.199274
        }
    },
    {
        "name": "JOLY Aurélie",
        "address": "2 AVENUE FRANCOIS MITTERRAND",
        "postalCode": "2500",
        "city": "HIRSON",
        "location": {
            "lat": 49.9142818,
            "lon": 4.0830359
        }
    },
    {
        "name": "MADELIA FORMATION",
        "address": "2 BIS RUE DU GENERAL DE GAULLE",
        "postalCode": "2160",
        "city": "BEAURIEUX",
        "location": {
            "lat": 50.1771836,
            "lon": 4.1279658
        }
    },
    {
        "name": "BENOMAR ABDELAKIM",
        "address": "13 RUE DE MAYENNE",
        "postalCode": "2200",
        "city": "SOISSONS",
        "location": {
            "lat": 49.379891,
            "lon": 3.329325
        }
    },
    {
        "name": "ATOUTS CONDUITE",
        "address": "3 AVENUE JOUSSAUME LATOUR",
        "postalCode": "2400",
        "city": "CHATEAU-THIERRY",
        "location": {
            "lat": 49.04466325,
            "lon": 3.404425132174792
        }
    },
    {
        "name": "STA CASTEL",
        "address": "74 RUE SAINT MARTIN",
        "postalCode": "2400",
        "city": "CHATEAU-THIERRY",
        "location": {
            "lat": 49.043376,
            "lon": 3.3925515
        }
    },
    {
        "name": "AUTO-ECOLE JEAN",
        "address": "7 RUE BERNARD LEFEVRE",
        "postalCode": "2670",
        "city": "FOLEMBRAY",
        "location": {
            "lat": 49.5456183,
            "lon": 3.2875348
        }
    },
    {
        "name": "O.S.R. OBJECTIF SECURITE ROUTIERE",
        "address": "47 rue Antoine Lecuyer",
        "postalCode": "2100",
        "city": "SAINT QUENTIN",
        "location": {
            "lat": 49.849069,
            "lon": 3.2842769
        }
    },
    {
        "name": "CFR  GOLOTVINE",
        "address": "41 avenue de la Victoire",
        "postalCode": "2440",
        "city": "MONTESCOURT-LIZEROLLES",
        "location": {
            "lat": 49.735757,
            "lon": 3.247789
        }
    },
    {
        "name": "GOLOTVINE",
        "address": "8 rue de la Paix",
        "postalCode": "2300",
        "city": "CHAUNY",
        "location": {
            "lat": 49.616146,
            "lon": 3.218767
        }
    },
    {
        "name": "DU CHATEAU",
        "address": "11 Rue du Chateau",
        "postalCode": "2470",
        "city": "NEUILLY-SAINT-FRONT",
        "location": {
            "lat": 49.1703317,
            "lon": 3.2591522
        }
    },
    {
        "name": "CRECY AUTO-ECOLE",
        "address": "42 BIS AVENUE DU GENERAL DE GAULLE",
        "postalCode": "2270",
        "city": "CRECY-SUR-SERRE",
        "location": {
            "lat": 49.6950782,
            "lon": 3.6240173
        }
    },
    {
        "name": "AUTO-MOTO-ECOLE ORIGNY",
        "address": "37 rue Pasteur",
        "postalCode": "2390",
        "city": "ORIGNY-SAINTE-BENOITE",
        "location": {
            "lat": 49.839958,
            "lon": 3.484381
        }
    },
    {
        "name": "AUTO-MOTO-ECOLE RIBEMONT",
        "address": "17 RUE DES ANCIENS COMBATTANTS DE FLANDRES",
        "postalCode": "2240",
        "city": "RIBEMONT",
        "location": {
            "lat": 49.798712,
            "lon": 3.468067
        }
    },
    {
        "name": "AUTO-ECOLE ROSSIGNOL",
        "address": "59 RUE DE LA REPUBLIQUE",
        "postalCode": "2800",
        "city": "LA FERE",
        "location": {
            "lat": 49.6605951,
            "lon": 3.3684282
        }
    },
    {
        "name": "ECB OLIVIER MARTIN",
        "address": "35 RUE DE PICARDIE",
        "postalCode": "2420",
        "city": "BELLICOURT",
        "location": {
            "lat": 49.961701,
            "lon": 3.231365
        }
    },
    {
        "name": "CHARLY PERMIS",
        "address": "36 RUE EMILE MORLOT",
        "postalCode": "2310",
        "city": "CHARLY",
        "location": {
            "lat": 48.977105,
            "lon": 3.287399
        }
    },
    {
        "name": "AUTO-ECOLE LIGNE DE CONDUITE",
        "address": "29 PLACE DE L'HOTEL DE VILLE  BP8",
        "postalCode": "2340",
        "city": "MONTCORNET",
        "location": {
            "lat": 49.6963889,
            "lon": 4.0180556
        }
    },
    {
        "name": "AUTO ECOLE PRESLES",
        "address": "2 BOULEVARD DE PRESLES",
        "postalCode": "2200",
        "city": "SOISSONS",
        "location": {
            "lat": 49.37538,
            "lon": 3.308805
        }
    },
    {
        "name": "AUTO-ECOLE 03 JULIEN CABOT",
        "address": "53 AVENUE JULES GUESDE",
        "postalCode": "3100",
        "city": "MONTLUCON",
        "location": {
            "lat": 46.3408227,
            "lon": 2.5855597
        }
    },
    {
        "name": "AUTO-ECOLE VALLET",
        "address": "18 Rue de la Burge",
        "postalCode": "3160",
        "city": "BOURBON-L'ARCHAMBAULT",
        "location": {
            "lat": 46.5881493,
            "lon": 3.0611427
        }
    },
    {
        "name": "SARL DESAMAIS-DUFOUR",
        "address": "37 rue jean jaures",
        "postalCode": "3600",
        "city": "COMMENTRY",
        "location": {
            "lat": 46.2944776,
            "lon": 2.7388836
        }
    },
    {
        "name": "AUTO-ECOLE MONTLHERY",
        "address": "29 RUE PIERRE SEMARD",
        "postalCode": "3260",
        "city": "SAINT-GERMAIN-DES-FOSSES",
        "location": {
            "lat": 46.2051258,
            "lon": 3.4325903
        }
    },
    {
        "name": "FLASH CONDUITE",
        "address": "23 RUE CROIX DES RAMEAUX",
        "postalCode": "3800",
        "city": "GANNAT",
        "location": {
            "lat": 46.1025869,
            "lon": 3.1960849
        }
    },
    {
        "name": "LIGLIOZZOLO",
        "address": "23 COURS LAFAYETTE",
        "postalCode": "3300",
        "city": "CUSSET",
        "location": {
            "lat": 46.132547349999996,
            "lon": 3.4587873169648895
        }
    },
    {
        "name": "AUTO-ECOLE CRESCENT",
        "address": "15 SQUARE WINSTON CHURCHILL",
        "postalCode": "3100",
        "city": "MONTLUCON",
        "location": {
            "lat": 46.3441578,
            "lon": 2.5985332
        }
    },
    {
        "name": "CER FLASH CONDUITE",
        "address": "30 FAUBOURG DU PALUET",
        "postalCode": "3500",
        "city": "SAINT-POURCAIN-SUR-SIOULE",
        "location": {
            "lat": 46.3074423,
            "lon": 3.2899107
        }
    },
    {
        "name": "DESAMAIS-DUFOUR",
        "address": "37 AVENUE J.F. KENNEDY",
        "postalCode": "3100",
        "city": "MONTLUCON",
        "location": {
            "lat": 46.433735,
            "lon": 2.6293194315989945
        }
    },
    {
        "name": "AUTO-ECOLE DE PRESLES",
        "address": "4 RUE DE PICARDIE",
        "postalCode": "3300",
        "city": "CUSSET",
        "location": {
            "lat": 46.1282342,
            "lon": 3.4378552
        }
    },
    {
        "name": "ECOLE DE CONDUITE LETEVE",
        "address": "28 AVENUE JULES GUESDE",
        "postalCode": "3100",
        "city": "MONTLUCON",
        "location": {
            "lat": 46.3415632,
            "lon": 2.5873128
        }
    },
    {
        "name": "AUTO-ECOLE C'PERMIS",
        "address": "54 AVENUE PAUL DOUMER",
        "postalCode": "3200",
        "city": "VICHY",
        "location": {
            "lat": 46.3053298,
            "lon": 3.297871
        }
    },
    {
        "name": "ECOLE DE CONDUITE LAURENT MARTINEZ",
        "address": "16 RUE DE LA LIBERATION",
        "postalCode": "3410",
        "city": "DOMERAT",
        "location": {
            "lat": 46.3575061,
            "lon": 2.5352186
        }
    },
    {
        "name": "AUTO-MOTO ECOLE CAMPET",
        "address": "9 AVENUE PAUL DOUMER",
        "postalCode": "3200",
        "city": "VICHY",
        "location": {
            "lat": 46.3053298,
            "lon": 3.297871
        }
    },
    {
        "name": "FRANCE CONDUITE",
        "address": "104 BIS BOULEVARD DE COURTAIS",
        "postalCode": "3100",
        "city": "MONTLUCON",
        "location": {
            "lat": 46.3420097,
            "lon": 2.6071385
        }
    },
    {
        "name": "CYRIL COUTURIER FORMATIONS",
        "address": "68 AVENUE DU 4 SEPTEMBRE",
        "postalCode": "3630",
        "city": "DESERTINES",
        "location": {
            "lat": 46.3585869,
            "lon": 2.6172774
        }
    },
    {
        "name": "CENTRE DE FORMATION DE CONDUCTEURS REGION AUVERGNE",
        "address": "25 RUE BENOIST D'AZY",
        "postalCode": "3100",
        "city": "MONTLUCON",
        "location": {
            "lat": 46.3577771,
            "lon": 2.6007851
        }
    },
    {
        "name": "AUTO ECOLE DE COMMENTRY",
        "address": "8 rue gabriel peri",
        "postalCode": "3600",
        "city": "COMMENTRY",
        "location": {
            "lat": 46.2895575,
            "lon": 2.7404546
        }
    },
    {
        "name": "Auto ecole de la besbre",
        "address": "172 Place de la Bascule",
        "postalCode": "3290",
        "city": "DOMPIERRE-SUR-BESBRE",
        "location": {
            "lat": 46.5216278,
            "lon": 3.6812752
        }
    },
    {
        "name": "AUTO-ECOLE GARIBALDI",
        "address": "6 RUE DES COMBATTANTS EN AFN",
        "postalCode": "3000",
        "city": "MOULINS",
        "location": {
            "lat": 46.57532595,
            "lon": 3.2688232572690334
        }
    },
    {
        "name": "ECOLE DE CONDUITE JEAN CHRISTOPHE-ECJC",
        "address": "6 RUE DE LA PRESLE",
        "postalCode": "3100",
        "city": "MONTLUCON",
        "location": {
            "lat": 46.338654,
            "lon": 2.6076446
        }
    },
    {
        "name": "LAPALISSE CONDUITE",
        "address": "5 RUE DU 4 SEPTEMBRE",
        "postalCode": "3120",
        "city": "LAPALISSE",
        "location": {
            "lat": 46.2471281,
            "lon": 3.6351927
        }
    },
    {
        "name": "ABSKILL",
        "address": "25 RUE DE PASQUIS",
        "postalCode": "3100",
        "city": "MONTLUCON",
        "location": {
            "lat": 46.3660162,
            "lon": 2.5924557
        }
    },
    {
        "name": "ECOLE DE CONDUITE C'PERMIS",
        "address": "93 AVENUE DU PRESIDENT AURIOL",
        "postalCode": "3100",
        "city": "MONTLUCON",
        "location": {
            "lat": 46.3379454,
            "lon": 2.5877175
        }
    },
    {
        "name": "AUTO ECOLE D'HURIEL",
        "address": "4 RUE DU CIMETIERE",
        "postalCode": "3380",
        "city": "HURIEL",
        "location": {
            "lat": 46.375679,
            "lon": 2.475965
        }
    },
    {
        "name": "SARL A.D.N. CONDUITE",
        "address": "25 rue Marcel Cachin",
        "postalCode": "3410",
        "city": "DOMERAT",
        "location": {
            "lat": 46.3629912,
            "lon": 2.5291204
        }
    },
    {
        "name": "EUROPE CONDUITE",
        "address": "8 avenue de la republique",
        "postalCode": "3100",
        "city": "MONTLUCON",
        "location": {
            "lat": 46.3440178,
            "lon": 2.5995767
        }
    },
    {
        "name": "FLASH CONDUITE",
        "address": "PLACE DE LA MAIRIE",
        "postalCode": "3330",
        "city": "BELLENAVES",
        "location": {
            "lat": 46.1991896,
            "lon": 3.0782973
        }
    },
    {
        "name": "AUTO-ECOLE LES MARAIS",
        "address": "51 AVENUE ALBERT THOMAS",
        "postalCode": "3100",
        "city": "MONTLUCON",
        "location": {
            "lat": 46.3529866,
            "lon": 2.5899338
        }
    },
    {
        "name": "AUTO-ECOLE LES MARAIS",
        "address": "35 RUE PAUL CONSTANS",
        "postalCode": "3190",
        "city": "VALLON-EN-SULLY",
        "location": {
            "lat": 46.5367619,
            "lon": 2.6088318
        }
    },
    {
        "name": "VENET NICOLAS GUY MARIE",
        "address": "21 avenue de Vichy",
        "postalCode": "3700",
        "city": "BELLERIVE-SUR-ALLIER",
        "location": {
            "lat": 46.1178924,
            "lon": 3.4086269
        }
    },
    {
        "name": "AUTO-ECOLE DESMARAIS",
        "address": "5 AVENUE PAUL DOUMER",
        "postalCode": "3500",
        "city": "SAINT-POURCAIN-SUR-SIOULE",
        "location": {
            "lat": 46.3053298,
            "lon": 3.297871
        }
    },
    {
        "name": "AUTO-ECOLE DESMARAIS",
        "address": "3 RUE DE VOUROUX",
        "postalCode": "3150",
        "city": "VARENNES-SUR-ALLIER",
        "location": {
            "lat": 46.3150148,
            "lon": 3.397317
        }
    },
    {
        "name": "CER INTER-CONDUITE",
        "address": "134 AVENUE DE VICHY",
        "postalCode": "3300",
        "city": "CUSSET",
        "location": {
            "lat": 46.131932500000005,
            "lon": 3.435399939555126
        }
    },
    {
        "name": "AUTO-ECOLE DU LYCEE",
        "address": "9 RUE ROCHER FAVYE",
        "postalCode": "3300",
        "city": "CUSSET",
        "location": {
            "lat": 46.131425,
            "lon": 3.4578385
        }
    },
    {
        "name": "GAILLARD FORMATION",
        "address": "2 RUE DE LA MAIRIE",
        "postalCode": "3400",
        "city": "TOULON-SUR-ALLIER",
        "location": {
            "lat": 46.5184563,
            "lon": 3.3580904
        }
    },
    {
        "name": "ECF VIGIER",
        "address": "ECO CENTRE DE VARENNES SUR ALLIER 23 RUE MARIUS COURTEIX",
        "postalCode": "3150",
        "city": "VARENNES-SUR-ALLIER",
        "location": {
            "lat": 46.3127469,
            "lon": 3.4033756
        }
    },
    {
        "name": "FLASH CONDUITE",
        "address": "89 AVENUE ST JAMES",
        "postalCode": "3800",
        "city": "GANNAT",
        "location": {
            "lat": 46.0978877,
            "lon": 3.1981743
        }
    },
    {
        "name": "SARL AUTO-ECOLE PASSION CONDUITE",
        "address": "3 BIS AVENUE EMILE ZOLA",
        "postalCode": "3400",
        "city": "YZEURE",
        "location": {
            "lat": 46.5658859,
            "lon": 3.3528223
        }
    },
    {
        "name": "CER INTERCONDUITE",
        "address": "1 RUE GABRIEL RAMIN",
        "postalCode": "3700",
        "city": "BELLERIVE-SUR-ALLIER",
        "location": {
            "lat": 46.1142879,
            "lon": 3.4111109
        }
    },
    {
        "name": "AUTO ECOLE LES MARAIS",
        "address": "65 AVENUE JEAN JAURES",
        "postalCode": "3350",
        "city": "CERILLY",
        "location": {
            "lat": 46.617947,
            "lon": 2.8193772
        }
    },
    {
        "name": "AD MATHEO",
        "address": "34 RUE GAMBETTA",
        "postalCode": "3270",
        "city": "SAINT-YORRE",
        "location": {
            "lat": 46.0632255,
            "lon": 3.4605171
        }
    },
    {
        "name": "AUTO ECOLE CRESCENT FORMATION",
        "address": "1 rue du Dienat",
        "postalCode": "3100",
        "city": "MONTLUCON",
        "location": {
            "lat": 46.3390238,
            "lon": 2.6100133
        }
    },
    {
        "name": "Ecole de Conduite Lavril",
        "address": "8 Cours de Bercy",
        "postalCode": "3000",
        "city": "MOULINS",
        "location": {
            "lat": 46.5684498,
            "lon": 3.3233016
        }
    },
    {
        "name": "SASU ECOLE DE CONDUITE BOURBONNAISE",
        "address": "16 RUE DES MINIMES",
        "postalCode": "3000",
        "city": "MOULINS",
        "location": {
            "lat": 46.5637463,
            "lon": 3.3327596
        }
    },
    {
        "name": "SARL AUTO ECOLE PASSION CONDUITE",
        "address": "42 COURS DE LA REPUBLIQUE",
        "postalCode": "3800",
        "city": "GANNAT",
        "location": {
            "lat": 46.1009893,
            "lon": 3.2001723
        }
    },
    {
        "name": "Formation Insertion Travail FIT",
        "address": "Rue Jacques Alexandre Duchet",
        "postalCode": "3100",
        "city": "MONTLUCON",
        "location": {
            "lat": 46.3614446,
            "lon": 2.5955377
        }
    },
    {
        "name": "SARL AUTO ECOLE PASSION CONDUITE",
        "address": "123 GRANDE RUE",
        "postalCode": "3290",
        "city": "DOMPIERRE-SUR-BESBRE",
        "location": {
            "lat": 46.5204339,
            "lon": 3.6832928
        }
    },
    {
        "name": "Auto-école du Lycée",
        "address": "126 Avenue de Vichy",
        "postalCode": "3300",
        "city": "CUSSET",
        "location": {
            "lat": 46.1322447,
            "lon": 3.4360241
        }
    },
    {
        "name": "TORRES FLORIAN",
        "address": "23 Boulevard Gambetta",
        "postalCode": "3200",
        "city": "VICHY",
        "location": {
            "lat": 46.129099,
            "lon": 3.425954526119404
        }
    },
    {
        "name": "ECOLE DE CONDUITE VOLTAIRE",
        "address": "18 PLACE DE L'HOTEL DE VILLE",
        "postalCode": "3000",
        "city": "MOULINS",
        "location": {
            "lat": 46.5662829,
            "lon": 3.3327857
        }
    },
    {
        "name": "ECOLE DE CONDUITE VOLTAIRE",
        "address": "PLACE ARISTID BRIAND",
        "postalCode": "3210",
        "city": "SOUVIGNY",
        "location": {
            "lat": 46.5345119,
            "lon": 3.1947101
        }
    },
    {
        "name": "SARL DESAMAIS DUFOUR",
        "address": "67 rue de la République",
        "postalCode": "3430",
        "city": "COSNE-D'ALLIER",
        "location": {
            "lat": 46.4741921,
            "lon": 2.8274563
        }
    },
    {
        "name": "UBAYE CONDUITE",
        "address": "10  RUE DES REMPARTS",
        "postalCode": "4400",
        "city": "BARCELONNETTE",
        "location": {
            "lat": 44.3864363,
            "lon": 6.6520706
        }
    },
    {
        "name": "AUTO ECOLE DU VERDON",
        "address": "RUE RENE CASSIN",
        "postalCode": "4500",
        "city": "RIEZ",
        "location": {
            "lat": 43.8191911,
            "lon": 6.0889847
        }
    },
    {
        "name": "Nos routes solidaires",
        "address": "9 chemin des Alpilles",
        "postalCode": "4000",
        "city": "DIGNE-LES-BAINS",
        "location": {
            "lat": 44.0796259,
            "lon": 6.2062777
        }
    },
    {
        "name": "Auto-école LE CHAFFAUT",
        "address": "Place du Cabaret Immeuble Magallon Place du cabaret",
        "postalCode": "4510",
        "city": "LE CHAFFAUT-SAINT-JURSON",
        "location": {
            "lat": 44.0383159,
            "lon": 6.1498875
        }
    },
    {
        "name": "CER CA ROULE",
        "address": "22, avenue Abdon Martin",
        "postalCode": "4700",
        "city": "ORAISON",
        "location": {
            "lat": 43.9181124,
            "lon": 5.9185245
        }
    },
    {
        "name": "NEVER GIVE UP",
        "address": "18 BOULEVARD ELIMIR BOURGES",
        "postalCode": "4100",
        "city": "MANOSQUE",
        "location": {
            "lat": 43.8338026,
            "lon": 5.7826657
        }
    },
    {
        "name": "RB PROVENCE FORMATION CONDUITE",
        "address": "13B BOULEVARD MARTIN BRET",
        "postalCode": "4100",
        "city": "MANOSQUE",
        "location": {
            "lat": 43.8364242,
            "lon": 5.7813542
        }
    },
    {
        "name": "AUTO ECOLE CERESTAINE",
        "address": "PLACE DANIEL VIGOUROUX",
        "postalCode": "4280",
        "city": "CERESTE",
        "location": {
            "lat": 43.8566946,
            "lon": 5.5881184
        }
    },
    {
        "name": "CER CA ROULE",
        "address": "13 BOULEVARD LATOURETTE",
        "postalCode": "4300",
        "city": "FORCALQUIER",
        "location": {
            "lat": 43.9587907,
            "lon": 5.7800044
        }
    },
    {
        "name": "CH.P.CHARLOTTE PERMIS",
        "address": "5 Boulevard de la République",
        "postalCode": "4300",
        "city": "FORCALQUIER",
        "location": {
            "lat": 43.9580313,
            "lon": 5.7777134
        }
    },
    {
        "name": "CERF",
        "address": "341 CHEMIN DU MOULIN NEUF",
        "postalCode": "4100",
        "city": "MANOSQUE",
        "location": {
            "lat": 43.8338026,
            "lon": 5.7826657
        }
    },
    {
        "name": "BBV CONDUITE",
        "address": "27 AVENUE ABDON MARTIN",
        "postalCode": "4700",
        "city": "ORAISON",
        "location": {
            "lat": 43.9179999,
            "lon": 5.9186597
        }
    },
    {
        "name": "NOS ROUTES SOLIDAIRES",
        "address": "RUE DE L'INDUSTRIE ZI SAINT JOSEPH",
        "postalCode": "4100",
        "city": "MANOSQUE",
        "location": {
            "lat": 43.826062,
            "lon": 5.7980395
        }
    },
    {
        "name": "AUTO ECOLE ZIG ZAG",
        "address": "105 AVENUE PAUL ARENE",
        "postalCode": "4200",
        "city": "SISTERON",
        "location": {
            "lat": 44.1955362,
            "lon": 5.942837
        }
    },
    {
        "name": "SARL AUTO ECOLE L'ETOILE",
        "address": "60 AVENUE JEAN GIONO",
        "postalCode": "4100",
        "city": "MANOSQUE",
        "location": {
            "lat": 43.8279353,
            "lon": 5.7863663
        }
    },
    {
        "name": "CER CA ROULE LES MEES",
        "address": "9 rue de l'ancien hopital",
        "postalCode": "4190",
        "city": "LES MEES",
        "location": {
            "lat": 44.0298434,
            "lon": 5.9760073
        }
    },
    {
        "name": "AUTO ÉCOLE LATIL FORMATIONS",
        "address": "PLACE DE LA REPUBLIQUE 15 AVENUE DES ARCADES",
        "postalCode": "4200",
        "city": "SISTERON",
        "location": {
            "lat": 44.1963467,
            "lon": 5.9443791
        }
    },
    {
        "name": "BOYER FORMATION *",
        "address": "FONT DE DURANCE",
        "postalCode": "4700",
        "city": "ORAISON",
        "location": {
            "lat": 43.9166157,
            "lon": 5.919898
        }
    },
    {
        "name": "SUD PREVENTION SECURITE GRAND PUBLIC *",
        "address": "81 BOULEVARD GASSENDI",
        "postalCode": "4000",
        "city": "DIGNE-LES-BAINS",
        "location": {
            "lat": 44.0939271,
            "lon": 6.2379345
        }
    },
    {
        "name": "AUTO ECOLE PROVENCALE",
        "address": "8 BOULEVARD VICTOR HUGO",
        "postalCode": "4000",
        "city": "DIGNE-LES-BAINS",
        "location": {
            "lat": 44.0938898,
            "lon": 6.2364179
        }
    },
    {
        "name": "MARINE SAS",
        "address": "34 AVENUE JEAN JAURES",
        "postalCode": "4200",
        "city": "SISTERON",
        "location": {
            "lat": 44.1816087,
            "lon": 5.9495109
        }
    },
    {
        "name": "MARINE SAS",
        "address": "1 PLACE CAMILLE REYMOND",
        "postalCode": "4160",
        "city": "CHATEAU-ARNOUX-SAINT-AUBAN",
        "location": {
            "lat": 44.0929531,
            "lon": 6.0091765
        }
    },
    {
        "name": "AFTRAL **",
        "address": "CHEMIN DU MOULIN ZA DES GRANDS JARDINS",
        "postalCode": "4220",
        "city": "SAINTE-TULLE",
        "location": {
            "lat": 43.7858269,
            "lon": 5.762704
        }
    },
    {
        "name": "DJESLY",
        "address": "13 Bis Boulevard Casimir Pelloutier",
        "postalCode": "4100",
        "city": "MANOSQUE",
        "location": {
            "lat": 43.8346266,
            "lon": 5.7813429
        }
    },
    {
        "name": "auto ecole zig zag St Bonnet",
        "address": "12 place grenette",
        "postalCode": "5500",
        "city": "SAINT-BONNET-EN-CHAMPSAUR",
        "location": {
            "lat": 44.6829172,
            "lon": 6.0746371
        }
    },
    {
        "name": "SARL GB  ZIG-ZAG AUROUZE",
        "address": "4, Rue Charles Aurouze",
        "postalCode": "5000",
        "city": "GAP",
        "location": {
            "lat": 44.5621752,
            "lon": 6.0778818
        }
    },
    {
        "name": "SPORTING AUTO ECOLE",
        "address": "53 rue jean eymar",
        "postalCode": "5000",
        "city": "GAP",
        "location": {
            "lat": 44.559908,
            "lon": 6.0770377884615385
        }
    },
    {
        "name": "SARL GB AUTO ECOLE ZIG ZAG DUMONT",
        "address": "6B AV COMMANDANT DUMONT",
        "postalCode": "5000",
        "city": "GAP",
        "location": {
            "lat": 44.5339725,
            "lon": 5.8250103
        }
    },
    {
        "name": "LATIL FORMATIONS",
        "address": "1 bd général de gaulle",
        "postalCode": "5000",
        "city": "GAP",
        "location": {
            "lat": 44.5600139,
            "lon": 6.076159
        }
    },
    {
        "name": "SARL GB AUTO ECOLE ZIG ZAG VEYNES",
        "address": "4 rue berthelot",
        "postalCode": "5400",
        "city": "VEYNES",
        "location": {
            "lat": 44.5343479,
            "lon": 5.8241169
        }
    },
    {
        "name": "AE ECF BOURLIER",
        "address": "1 AVENUE DE VERDUN",
        "postalCode": "5200",
        "city": "EMBRUN",
        "location": {
            "lat": 44.5653213,
            "lon": 6.4987955
        }
    },
    {
        "name": "AE ECF BOURLIER ARGENTIERE",
        "address": "22 avenue de la republique",
        "postalCode": "5120",
        "city": "L'ARGENTIERE-LA-BESSEE",
        "location": {
            "lat": 44.7949891,
            "lon": 6.5616112
        }
    },
    {
        "name": "AUTO ECOLE ZIG-ZAG EMBRUN",
        "address": "AVENUE GENERAL DE GAULE LES JARDINS DU REAL",
        "postalCode": "5200",
        "city": "EMBRUN",
        "location": {
            "lat": 44.5641764,
            "lon": 6.4958189
        }
    },
    {
        "name": "ESPACE CONDUITE",
        "address": "27 AVENUE DU COMMANDANT DUMONT",
        "postalCode": "5000",
        "city": "GAP",
        "location": {
            "lat": 44.5622314,
            "lon": 6.0840255
        }
    },
    {
        "name": "AUTO ECOLE ZIG ZAG LARAGNE",
        "address": "3 Place de la Fontaine",
        "postalCode": "5300",
        "city": "LARAGNE-MONTEGLIN",
        "location": {
            "lat": 44.3140607,
            "lon": 5.8223037
        }
    },
    {
        "name": "EMILIE CONDUITE EMBRUN",
        "address": "AVENUE DE VERDUN",
        "postalCode": "5200",
        "city": "EMBRUN",
        "location": {
            "lat": 44.5653213,
            "lon": 6.4987955
        }
    },
    {
        "name": "FIFTY DRIVE",
        "address": "16 AVENUE JEAN JAURES",
        "postalCode": "5000",
        "city": "GAP",
        "location": {
            "lat": 44.5544608,
            "lon": 6.0738477
        }
    },
    {
        "name": "EMILIE CONDUITE GUILLESTRE",
        "address": "27 RUE MAURICE PETSCHE",
        "postalCode": "5600",
        "city": "GUILLESTRE",
        "location": {
            "lat": 44.6598242,
            "lon": 6.6495095
        }
    },
    {
        "name": "SAS MICHEL ET FILS AUTO ECOLE GAP",
        "address": "17 AVENUE DU COMMANDANT DUMONT",
        "postalCode": "5000",
        "city": "GAP",
        "location": {
            "lat": 44.5622314,
            "lon": 6.0840255
        }
    },
    {
        "name": "SAS MICHEL ET FILS AUTO ECOLE TALLARD",
        "address": "3 AVENUE DU 11 NOVEMBRE",
        "postalCode": "5130",
        "city": "TALLARD",
        "location": {
            "lat": 44.4641748,
            "lon": 6.0572898
        }
    },
    {
        "name": "ECF BOURLIER",
        "address": "23 AVENUE GENERAL DE GAULLE",
        "postalCode": "5100",
        "city": "BRIANCON",
        "location": {
            "lat": 44.8933406,
            "lon": 6.6338093
        }
    },
    {
        "name": "SUD PREVENTION SECURITE*",
        "address": "6 RUE DE VALSERRES",
        "postalCode": "5000",
        "city": "GAP",
        "location": {
            "lat": 44.5562697,
            "lon": 6.077313
        }
    },
    {
        "name": "AFTRAL NEFFES *",
        "address": "Plaine de Lachaup Quartier Serre Niou",
        "postalCode": "5000",
        "city": "NEFFES",
        "location": {
            "lat": 44.5045956,
            "lon": 6.0210847
        }
    },
    {
        "name": "AUTO-ECOLE DU QUEYRAS BRIANCON",
        "address": "1 AVENUE DU DAUPHINE",
        "postalCode": "5100",
        "city": "BRIANCON",
        "location": {
            "lat": 44.9026485,
            "lon": 6.6311292
        }
    },
    {
        "name": "AUTO-ECOLE DU QUEYRAS CHATEAU QUEYRAS",
        "address": "86 RUE VAUBAN CHATEAU-QUEYRAS",
        "postalCode": "5350",
        "city": "CHATEAU-VILLE-VIEILLE",
        "location": {
            "lat": 44.76246435,
            "lon": 6.811455679071001
        }
    },
    {
        "name": "EMILIE CONDUITE BRIANCON",
        "address": "33 avenue du 159 RIA",
        "postalCode": "5100",
        "city": "BRIANCON",
        "location": {
            "lat": 44.83178515,
            "lon": 6.672298792949881
        }
    },
    {
        "name": "AUTO ECOLE LA COLLOISE",
        "address": "24 RUE GEORGES CLEMENCEAU",
        "postalCode": "6480",
        "city": "LA COLLE-SUR-LOUP",
        "location": {
            "lat": 43.6872205,
            "lon": 7.1024236
        }
    },
    {
        "name": "CARS FORMATION",
        "address": "6 BIS AVENUE DE LA REPUBLIQUE",
        "postalCode": "60000",
        "city": "BEAUVAIS",
        "location": {
            "lat": 49.4267912,
            "lon": 2.0886816
        }
    },
    {
        "name": "AUTO ECOLE CARAVELLE",
        "address": "93 AVENUE BORRIGLIONE",
        "postalCode": "6100",
        "city": "NICE",
        "location": {
            "lat": 43.71961,
            "lon": 7.2621909
        }
    },
    {
        "name": "J",
        "address": "14 Rue Dante",
        "postalCode": "6000",
        "city": "NICE",
        "location": {
            "lat": 43.6956834,
            "lon": 7.2538467
        }
    },
    {
        "name": "C.E.R. ARTERO",
        "address": "152 Avenue Général Leclerc",
        "postalCode": "6700",
        "city": "SAINT-LAURENT-DU-VAR",
        "location": {
            "lat": 43.673028,
            "lon": 7.190302
        }
    },
    {
        "name": "GENIA",
        "address": "134 avenue Emile Hugues",
        "postalCode": "6140",
        "city": "VENCE",
        "location": {
            "lat": 43.7220715,
            "lon": 7.108122335591277
        }
    },
    {
        "name": "AUTO ECOLE FOCH",
        "address": "19, BOULEVARD CHANCEL",
        "postalCode": "6600",
        "city": "ANTIBES",
        "location": {
            "lat": 43.5796086,
            "lon": 7.1191326
        }
    },
    {
        "name": "AUTO ECOLE DU PIOL",
        "address": "45 AVENUE PAUL ARENE",
        "postalCode": "6000",
        "city": "NICE",
        "location": {
            "lat": 43.7089075,
            "lon": 7.2518255
        }
    },
    {
        "name": "AUTO ECOLE VAL FLEURI",
        "address": "2 CHEMIN DU VAL FLEURI",
        "postalCode": "6800",
        "city": "CAGNES-SUR-MER",
        "location": {
            "lat": 43.6656888,
            "lon": 7.1701321
        }
    },
    {
        "name": "AUTO ECOLE CLUB",
        "address": "16 AVENUE ALFRED BORRIGLIONE",
        "postalCode": "6000",
        "city": "NICE",
        "location": {
            "lat": 43.7182052,
            "lon": 7.2614167
        }
    },
    {
        "name": "AUTO ECOLE SAINT ROCH",
        "address": "15 RUE DE SOSPEL",
        "postalCode": "6300",
        "city": "NICE",
        "location": {
            "lat": 43.7098015,
            "lon": 7.293372970280438
        }
    },
    {
        "name": "AUTO ECOLE PARIS DAKAR",
        "address": "4 ALLEE DES PLATANES",
        "postalCode": "6800",
        "city": "CAGNES-SUR-MER",
        "location": {
            "lat": 43.6651152,
            "lon": 7.1512656
        }
    },
    {
        "name": "AUTO ECOLE MISTRAL",
        "address": "53 BOULEVARD CARLONE",
        "postalCode": "6200",
        "city": "NICE",
        "location": {
            "lat": 43.6937558,
            "lon": 7.2388573
        }
    },
    {
        "name": "AUTO ECOLE R.C.M.",
        "address": "3 RUE VICTOR HUGO",
        "postalCode": "6190",
        "city": "ROQUEBRUNE-CAP-MARTIN",
        "location": {
            "lat": 43.7641047,
            "lon": 7.4565697
        }
    },
    {
        "name": "AUTO ECOLE NICE FLORE",
        "address": "65 BD RENE CASSIN",
        "postalCode": "6200",
        "city": "NICE",
        "location": {
            "lat": 43.6700189,
            "lon": 7.2159821
        }
    },
    {
        "name": "GUY",
        "address": "65 ROUTE DE DRAGUIGNAN",
        "postalCode": "6530",
        "city": "PEYMEINADE",
        "location": {
            "lat": 43.6389093,
            "lon": 6.8718233
        }
    },
    {
        "name": "AUTO ECOLE MAC 2 NICE LE PORT",
        "address": "9 RUE ARSON",
        "postalCode": "6300",
        "city": "NICE",
        "location": {
            "lat": 43.6999487,
            "lon": 7.2865163
        }
    },
    {
        "name": "AUTO ECOLE TICHALO",
        "address": "466 BOULEVARD LEON SAUVAN",
        "postalCode": "6690",
        "city": "TOURRETTE-LEVENS",
        "location": {
            "lat": 43.7910237,
            "lon": 7.2736655
        }
    },
    {
        "name": "AUTO ECOLE DRAGSTER",
        "address": "LE VIVALDI, 14 AVENUE DE NICE ( RN 7 )",
        "postalCode": "6800",
        "city": "CAGNES-SUR-MER",
        "location": {
            "lat": 43.6612012,
            "lon": 7.1513834
        }
    },
    {
        "name": "LECLERC",
        "address": "25 Bd Général Leclerc",
        "postalCode": "6240",
        "city": "BEAUSOLEIL",
        "location": {
            "lat": 43.7430732,
            "lon": 7.4268687
        }
    },
    {
        "name": "AUTO ECOLE GORBELLA",
        "address": "38 BOULEVARD GORBELLA",
        "postalCode": "6100",
        "city": "NICE",
        "location": {
            "lat": 43.7208138,
            "lon": 7.2567198
        }
    },
    {
        "name": "AUTO ECOLE VALROSE",
        "address": "108 AVENUE SAINT LAMBERT",
        "postalCode": "6100",
        "city": "NICE",
        "location": {
            "lat": 43.715295499999996,
            "lon": 7.262771841806219
        }
    },
    {
        "name": "AUTO ECOLE DES ALPES",
        "address": "985 ROUTE NATIONALE 202",
        "postalCode": "6670",
        "city": "SAINT-MARTIN-DU-VAR",
        "location": {
            "lat": 43.82197,
            "lon": 7.1918
        }
    },
    {
        "name": "AUTO ECOLE M.G",
        "address": "2 AVENUE RIOU BLANQUET",
        "postalCode": "6130",
        "city": "GRASSE",
        "location": {
            "lat": 43.6626161,
            "lon": 6.927155
        }
    },
    {
        "name": "C.E.R. MARCEL",
        "address": "26 RUE DE LA REPUBLIQUE",
        "postalCode": "6500",
        "city": "MENTON",
        "location": {
            "lat": 43.7752176,
            "lon": 7.5010689
        }
    },
    {
        "name": "ILE VERTE",
        "address": "24 chemin du Darbousson",
        "postalCode": "6560",
        "city": "VALBONNE",
        "location": {
            "lat": 43.6447622,
            "lon": 7.0495033378137215
        }
    },
    {
        "name": "AUTO ECOLE CONTOISE",
        "address": "07 RUE MARIUS PENCENAT",
        "postalCode": "6390",
        "city": "CONTES",
        "location": {
            "lat": 43.811312,
            "lon": 7.3130618
        }
    },
    {
        "name": "DU CANNET",
        "address": "42 boulevard sadi carnot",
        "postalCode": "6400",
        "city": "CANNES",
        "location": {
            "lat": 43.5515198,
            "lon": 7.0134418
        }
    },
    {
        "name": "AUTO ECOLE 3000",
        "address": "1 RUE DE FERSEN",
        "postalCode": "6600",
        "city": "ANTIBES",
        "location": {
            "lat": 43.57970555,
            "lon": 7.122986379157668
        }
    },
    {
        "name": "COMPTE-TOURS",
        "address": "11 AVENUE PIERRE DEVOLUY LE NOTRE DAME QUARTIER ST JACQUES",
        "postalCode": "6130",
        "city": "GRASSE",
        "location": {
            "lat": 43.6992524,
            "lon": 6.979671440980542
        }
    },
    {
        "name": "AUTO ECOLE LES JASMINS",
        "address": "6 BOULEVARD VICTOR HUGO",
        "postalCode": "6130",
        "city": "GRASSE",
        "location": {
            "lat": 43.655735449999995,
            "lon": 6.919221606753694
        }
    },
    {
        "name": "AUTO ECOLE REMBRANDT",
        "address": "47 BIS RUE BARBERIS",
        "postalCode": "6300",
        "city": "NICE",
        "location": {
            "lat": 43.7033745,
            "lon": 7.2893869
        }
    },
    {
        "name": "REFLEX LA TRINITE",
        "address": "2 bd stalingrad",
        "postalCode": "6340",
        "city": "LA TRINITE",
        "location": {
            "lat": 43.7407589,
            "lon": 7.3120701
        }
    },
    {
        "name": "AUTO ECOLE LA BOCCA",
        "address": "16 avenue Francis Tonner",
        "postalCode": "6400",
        "city": "CANNES",
        "location": {
            "lat": 43.5501698,
            "lon": 6.9599512
        }
    },
    {
        "name": "AUTO ECOLE D'ANTIBES",
        "address": "627 CHEMIN DES AMES DU PURGATOIRE",
        "postalCode": "6600",
        "city": "ANTIBES",
        "location": {
            "lat": 43.589952702265684,
            "lon": 7.096146604377681
        }
    },
    {
        "name": "AUTO ECOLE DU MONT BORON",
        "address": "49 RUE ARSON",
        "postalCode": "6300",
        "city": "NICE",
        "location": {
            "lat": 43.705047,
            "lon": 7.2891665
        }
    },
    {
        "name": "AUTO ECOLE ALPHA CONDUITE",
        "address": "05 AVE SAINT JEAN",
        "postalCode": "6400",
        "city": "CANNES",
        "location": {
            "lat": 43.5515198,
            "lon": 7.0134418
        }
    },
    {
        "name": "AUTO ECOLE DES BOSQUETS",
        "address": "04 AVE DES BOSQUETS",
        "postalCode": "6200",
        "city": "NICE",
        "location": {
            "lat": 44.0040293,
            "lon": 7.23521295426402
        }
    },
    {
        "name": "AUTO ECOLE DES LYCEES",
        "address": "43 Bd Tzarewitch Immeuble Impérial Palace",
        "postalCode": "6000",
        "city": "NICE",
        "location": {
            "lat": 44.0040293,
            "lon": 7.23521295426402
        }
    },
    {
        "name": "AUTO ECOLE ADRENALINE",
        "address": "30 ave Georges Clemenceau",
        "postalCode": "6000",
        "city": "NICE",
        "location": {
            "lat": 44.0040293,
            "lon": 7.23521295426402
        }
    },
    {
        "name": "AUTO ECOLE VALLIS BONA",
        "address": "Res Vallis Bona 1 place de la Vignasse",
        "postalCode": "6560",
        "city": "VALBONNE",
        "location": {
            "lat": 43.641141,
            "lon": 7.0086255
        }
    },
    {
        "name": "AUTO ECOLE CLAUZIER",
        "address": "28 Ter Boulevard Jean-Baptiste Verany",
        "postalCode": "6300",
        "city": "NICE",
        "location": {
            "lat": 43.7152386,
            "lon": 7.2827218
        }
    },
    {
        "name": "AUTO ECOLE DU HAUT PAYS",
        "address": "04 Rue de la Mairie",
        "postalCode": "6750",
        "city": "SERANON",
        "location": {
            "lat": 43.7742384,
            "lon": 6.7041357
        }
    },
    {
        "name": "Auto moto école des Alpes 4 - Puget-Theniers",
        "address": "5 rue de verdun",
        "postalCode": "6260",
        "city": "PUGET-THENIERS",
        "location": {
            "lat": 43.9564146,
            "lon": 6.8937894
        }
    },
    {
        "name": "AUTO ECOLE BRUNO",
        "address": "938 Bd de la République",
        "postalCode": "6550",
        "city": "LA ROQUETTE-SUR-SIAGNE",
        "location": {
            "lat": 43.5810901,
            "lon": 6.9557118
        }
    },
    {
        "name": "AUTO ECOLE SEVEN",
        "address": "32 RUE YVES KLEIN",
        "postalCode": "6480",
        "city": "LA COLLE-SUR-LOUP",
        "location": {
            "lat": 43.6858378,
            "lon": 7.1069752
        }
    },
    {
        "name": "AUTO ECOLE PRE DU LAC",
        "address": "33/35 CHEMIN DU CABANON LES HELIOTROPES BAT B",
        "postalCode": "6740",
        "city": "CHATEAUNEUF-GRASSE",
        "location": {
            "lat": 43.6747381,
            "lon": 6.9758576
        }
    },
    {
        "name": "AUTO ECOLE DES MOULINS",
        "address": "17 TRAVERSE DE LA DIGUE DES FRANCAIS",
        "postalCode": "6200",
        "city": "NICE",
        "location": {
            "lat": 43.6770181,
            "lon": 7.2035498
        }
    },
    {
        "name": "AUTO ECOLE ANGELY'S CONDUITE",
        "address": "23 RUE ROQUEBILLIERE",
        "postalCode": "6300",
        "city": "NICE",
        "location": {
            "lat": 43.7133442,
            "lon": 7.2890491
        }
    },
    {
        "name": "AUTO ECOLE RETRO",
        "address": "03 RUE PARMENTIER",
        "postalCode": "6100",
        "city": "NICE",
        "location": {
            "lat": 43.7137814,
            "lon": 7.2582439
        }
    },
    {
        "name": "AUTO ECOLE NATIONALE CONDUITE",
        "address": "847 CHEMIN DE SAINT JEAN",
        "postalCode": "6600",
        "city": "ANTIBES",
        "location": {
            "lat": 43.582607,
            "lon": 7.1132448
        }
    },
    {
        "name": "ECOLE DE VIE",
        "address": "10 RUE ACCHIARDI DE SAINT LEGER 04.22.16.32.80",
        "postalCode": "6300",
        "city": "NICE",
        "location": {
            "lat": 44.0040293,
            "lon": 7.23521295426402
        }
    },
    {
        "name": "AUTO ECOLE DU CAP D AIL",
        "address": "01 PLACE DE LA LIBERTE BAT A LE ZEPHYR",
        "postalCode": "6320",
        "city": "CAP-D'AIL",
        "location": {
            "lat": 43.7230453,
            "lon": 7.3969373
        }
    },
    {
        "name": "LAVA ARTERO",
        "address": "52 AVE CYRILLE BESSET",
        "postalCode": "6100",
        "city": "NICE",
        "location": {
            "lat": 44.0040293,
            "lon": 7.23521295426402
        }
    },
    {
        "name": "AUTO ECOLE DE LA BUANDERIE",
        "address": "04 PLACE DE LA BUANDERIE",
        "postalCode": "6130",
        "city": "GRASSE",
        "location": {
            "lat": 43.6610243,
            "lon": 6.923023531108396
        }
    },
    {
        "name": "CHATEAUNEUF",
        "address": "31 RUE CHATEAUNEUF",
        "postalCode": "6000",
        "city": "NICE",
        "location": {
            "lat": 43.700159,
            "lon": 7.2523978
        }
    },
    {
        "name": "AUTO ECOLE LE LOCAL",
        "address": "17 RUE SOLEAU",
        "postalCode": "6300",
        "city": "NICE",
        "location": {
            "lat": 43.7015831,
            "lon": 7.2905818
        }
    },
    {
        "name": "DRIVE SCOP",
        "address": "41 BIS RUE GAMBETTA",
        "postalCode": "6560",
        "city": "VALBONNE",
        "location": {
            "lat": 43.6420552,
            "lon": 7.0079956
        }
    },
    {
        "name": "AUTO ECOLE ACADEMIQUE DE CAGNES",
        "address": "93 AVE CYRILLE BESSET",
        "postalCode": "6800",
        "city": "CAGNES-SUR-MER",
        "location": {
            "lat": 43.6612012,
            "lon": 7.1513834
        }
    },
    {
        "name": "AUTO ECOLE RAPHAEL",
        "address": "512 ROUTE DE KA ROQUETTE",
        "postalCode": "6370",
        "city": "MOUANS-SARTOUX",
        "location": {
            "lat": 43.6203852,
            "lon": 6.9703991
        }
    },
    {
        "name": "AUTO ECOLE DU TROPHEE",
        "address": "10 Avenue de Cap d'Ail",
        "postalCode": "6320",
        "city": "CAP-D'AIL",
        "location": {
            "lat": 43.7230453,
            "lon": 7.3969373
        }
    },
    {
        "name": "AUTO ECOLE J.J.M.B",
        "address": "09 BD CARLONE",
        "postalCode": "6200",
        "city": "NICE",
        "location": {
            "lat": 43.6936793,
            "lon": 7.2432096
        }
    },
    {
        "name": "AUTO ECOLE MASSENA",
        "address": "30 AVE SAINT JEAN BAPTISTE",
        "postalCode": "6000",
        "city": "NICE",
        "location": {
            "lat": 44.0040293,
            "lon": 7.23521295426402
        }
    },
    {
        "name": "AUTO ECOLE DES PUGETS",
        "address": "156 AVE DES PUGETS LE MICHEL ANGE BAT A",
        "postalCode": "6700",
        "city": "SAINT-LAURENT-DU-VAR",
        "location": {
            "lat": 43.6690101,
            "lon": 7.1906969
        }
    },
    {
        "name": "AUTO ECOLE BRUNO PEGOMAS",
        "address": "68 AVE DE GRASSE",
        "postalCode": "6580",
        "city": "PEGOMAS",
        "location": {
            "lat": 43.5928477,
            "lon": 6.9306639
        }
    },
    {
        "name": "AUTO ECOLE BELLONE",
        "address": "01 RUE THAON DE REVEL",
        "postalCode": "6300",
        "city": "NICE",
        "location": {
            "lat": 43.707234,
            "lon": 7.284516
        }
    },
    {
        "name": "AUTO-ECOLE STANISLAS",
        "address": "22 - 24 RUE DES SUISSES",
        "postalCode": "6400",
        "city": "CANNES",
        "location": {
            "lat": 43.552213,
            "lon": 7.008548
        }
    },
    {
        "name": "AUTO-ECOLE GMG CONDUITE",
        "address": "273 AVE DU GENERAL DE GAULLE",
        "postalCode": "6700",
        "city": "SAINT-LAURENT-DU-VAR",
        "location": {
            "lat": 43.6690101,
            "lon": 7.1906969
        }
    },
    {
        "name": "AUTO ECOLE LA LANTERNE",
        "address": "18 AVE DE LA LANTERNE",
        "postalCode": "6200",
        "city": "NICE",
        "location": {
            "lat": 44.0040293,
            "lon": 7.23521295426402
        }
    },
    {
        "name": "AUTO ECOLE WE CANNES",
        "address": "76 BD DE LA REPUBLIQUE VILLA MARYLIN",
        "postalCode": "6400",
        "city": "CANNES",
        "location": {
            "lat": 43.5515198,
            "lon": 7.0134418
        }
    },
    {
        "name": "LES PLANS CONDUITE",
        "address": "16 BD DE LE REPUBLIQUE LES ALLEES FLEURIES BAT L",
        "postalCode": "6510",
        "city": "CARROS",
        "location": {
            "lat": 43.7846,
            "lon": 7.18785
        }
    },
    {
        "name": "ECOLE DE CONDUITE FLORIAN",
        "address": "03 BD DE LA COLLE BELLE",
        "postalCode": "6510",
        "city": "CARROS",
        "location": {
            "lat": 43.7738861,
            "lon": 7.1933272
        }
    },
    {
        "name": "AUTO ECOLE AZUR DRIVE",
        "address": "62 AVE DES ALLIES",
        "postalCode": "6500",
        "city": "MENTON",
        "location": {
            "lat": 43.7753495,
            "lon": 7.5029213
        }
    },
    {
        "name": "SAS KRYSTAL",
        "address": "07 RUE MICHELET",
        "postalCode": "6100",
        "city": "NICE",
        "location": {
            "lat": 43.7146474,
            "lon": 7.2603722
        }
    },
    {
        "name": "AUTO ECOLE ELITE",
        "address": "1 AVENUE DESAMBROIS",
        "postalCode": "6000",
        "city": "NICE",
        "location": {
            "lat": 43.7044778,
            "lon": 7.2732244
        }
    },
    {
        "name": "AUTO ECOLE ZONE PERMIS",
        "address": "89 AVENUE DE NICE",
        "postalCode": "6600",
        "city": "ANTIBES",
        "location": {
            "lat": 43.5990555,
            "lon": 7.1203619
        }
    },
    {
        "name": "AUTO ECOLE JOURDAN",
        "address": "87 AVE MICHEL JOURDAN",
        "postalCode": "6150",
        "city": "CANNES",
        "location": {
            "lat": 43.5515198,
            "lon": 7.0134418
        }
    },
    {
        "name": "AUTO ECOLE CAPITOU",
        "address": "RUE DE BOERIE LES CIGALES BAT A1",
        "postalCode": "6210",
        "city": "MANDELIEU-LA-NAPOULE",
        "location": {
            "lat": 43.5439153,
            "lon": 6.9359135
        }
    },
    {
        "name": "AUTO ECOLE MINELLE",
        "address": "601 AVE DE FREJUS",
        "postalCode": "6210",
        "city": "MANDELIEU-LA-NAPOULE",
        "location": {
            "lat": 43.5439153,
            "lon": 6.9359135
        }
    },
    {
        "name": "AUTO ECOLE FLASH CONDUITE",
        "address": "25 RUE BONAPARTE",
        "postalCode": "6300",
        "city": "NICE",
        "location": {
            "lat": 43.7007254,
            "lon": 7.2834436
        }
    },
    {
        "name": "AUTO ECOLE SAINT VALLIER",
        "address": "08 AVE GASTON DE FONTMICHEL",
        "postalCode": "6460",
        "city": "SAINT-VALLIER-DE-THIEY",
        "location": {
            "lat": 43.6987023,
            "lon": 6.8478583
        }
    },
    {
        "name": "AUTO ECOLE RAPHAEL 2",
        "address": "10 / 93 PLACE DU LOGIS",
        "postalCode": "6580",
        "city": "PEGOMAS",
        "location": {
            "lat": 43.5928477,
            "lon": 6.9306639
        }
    },
    {
        "name": "PARC LAYET",
        "address": "150 RUE DESJOBERT",
        "postalCode": "6700",
        "city": "SAINT-LAURENT-DU-VAR",
        "location": {
            "lat": 43.6753455,
            "lon": 7.1897565
        }
    },
    {
        "name": "AUTO-ECOLE ALEX LA ROURETANE",
        "address": "56 BIS ROUTE DE NICE",
        "postalCode": "6650",
        "city": "LE ROURET",
        "location": {
            "lat": 43.6739254,
            "lon": 7.0046727
        }
    },
    {
        "name": "FUN ROAD 06",
        "address": "PLACE PIERRE SAUVAIGO",
        "postalCode": "6110",
        "city": "LE CANNET",
        "location": {
            "lat": 43.570141,
            "lon": 6.9947749
        }
    },
    {
        "name": "CH'TI CONDUITE",
        "address": "L' ATHENA BÂT B 61 AVENUE RHINET DANUBE",
        "postalCode": "6140",
        "city": "VENCE",
        "location": {
            "lat": 43.7224167,
            "lon": 7.1116845
        }
    },
    {
        "name": "AUTO-ECOLE DES BAOUS",
        "address": "GALERIE MARCHANDE LES NERTIERES ALLEE HERCTOR PINTUS",
        "postalCode": "6610",
        "city": "LA GAUDE",
        "location": {
            "lat": 43.7228225,
            "lon": 7.1503312
        }
    },
    {
        "name": "CANO LOÏC",
        "address": "358 ROUTE DE DRAGUIGNAN",
        "postalCode": "6530",
        "city": "LE TIGNET",
        "location": {
            "lat": 43.6345275,
            "lon": 6.8525056
        }
    },
    {
        "name": "SC CONDUITE",
        "address": "14 RUE CLEMENT ROASSAL",
        "postalCode": "6000",
        "city": "NICE",
        "location": {
            "lat": 43.7082446,
            "lon": 7.2607343
        }
    },
    {
        "name": "JULES FERRY",
        "address": "155 BD DE LA REPUBLIQUE",
        "postalCode": "6400",
        "city": "CANNES",
        "location": {
            "lat": 43.5628141,
            "lon": 7.0210721
        }
    },
    {
        "name": "AUTO ECOLE AZUR",
        "address": "47 AVENUE DU GENERAL DE GAULLE",
        "postalCode": "6340",
        "city": "DRAP",
        "location": {
            "lat": 43.7607163,
            "lon": 7.3198717
        }
    },
    {
        "name": "DE LA BUANDERIE",
        "address": "274 AVENUE DE GRASSE",
        "postalCode": "6400",
        "city": "CANNES",
        "location": {
            "lat": 43.5553387,
            "lon": 7.0116162
        }
    },
    {
        "name": "ECOLE DECONDUITE DE ST CE",
        "address": "PLACE MAURE",
        "postalCode": "6530",
        "city": "SAINT-CEZAIRE-SUR-SIAGNE",
        "location": {
            "lat": 43.6505213,
            "lon": 6.7925537
        }
    },
    {
        "name": "CFM BARLA",
        "address": "15 RUE BARLA",
        "postalCode": "6300",
        "city": "NICE",
        "location": {
            "lat": 43.7019978,
            "lon": 7.2827744
        }
    },
    {
        "name": "KCJS",
        "address": "70 AVENUE DE LA LIBERTE  RESD L EMPEREUR",
        "postalCode": "6220",
        "city": "VALLAURIS",
        "location": {
            "lat": 43.5761001,
            "lon": 7.05859
        }
    },
    {
        "name": "H.I.T",
        "address": "2 CHEMIN DU CLOS  CIDEX 208",
        "postalCode": "6330",
        "city": "ROQUEFORT-LES-PINS",
        "location": {
            "lat": 43.6661456,
            "lon": 7.0492115
        }
    },
    {
        "name": "FORMA PLUS",
        "address": "16 BOULEVARD DES JARDINIERS",
        "postalCode": "6200",
        "city": "NICE",
        "location": {
            "lat": 43.710219,
            "lon": 7.1920667
        }
    },
    {
        "name": "MARTIN GAGNE",
        "address": "7 9 AVENUE DE FABRON LES GRANDS CEDRES BT D",
        "postalCode": "6200",
        "city": "NICE",
        "location": {
            "lat": 44.0040293,
            "lon": 7.23521295426402
        }
    },
    {
        "name": "AUTO ECOLE AZUR",
        "address": "LES TERRASSES DE LA POINTE ROUTE DEPARTEMENTALE 2204",
        "postalCode": "6440",
        "city": "BLAUSASC",
        "location": {
            "lat": 43.8059426,
            "lon": 7.3639617
        }
    },
    {
        "name": "AUTO ECOLE CARNOT",
        "address": "12 BD FRAGONARD",
        "postalCode": "6130",
        "city": "GRASSE",
        "location": {
            "lat": 43.6574806,
            "lon": 6.9239357
        }
    },